[
{"no":"1","sido":"서울","name":"연세대학교강남세브란스병원","address":"서울특별시 강남구 언주로211","lat":"37.4924307","lng":"127.0463186","treat":"외래진료 및 입원","callnum":"02-2019-2114"},
{"no":"2","sido":"서울","name":"중앙보훈병원","address":"서울특별시 강동구 진황도로 61길 53","lat":"37.5290867","lng":"127.1478475","treat":"외래진료 및 입원","callnum":"02-2225-1111"},
{"no":"3","sido":"서울","name":"강동성심병원","address":"서울특별시 강동구 성안로 150","lat":"37.5359699","lng":"127.135334","treat":"외래진료","callnum":"1588-4100"},
{"no":"4","sido":"서울","name":"강동경희대학교병원","address":"서울특별시 강동구 동남로 892","lat":"37.5530328","lng":"127.1573533","treat":"외래진료 및 입원","callnum":"02-440-8114"},
{"no":"5","sido":"서울","name":"이화여자대학교서울병원","address":"서울특별시 강서구 공항대로260","lat":"37.5572606","lng":"126.8362669","treat":"외래진료","callnum":"1522-7000"},
{"no":"6","sido":"서울","name":"에이치플러스양지병원","address":"서울특별시 관악구 남부순환로1636","lat":"37.4841322","lng":"126.9325731","treat":"외래진료","callnum":"02-1877-8875"},
{"no":"7","sido":"서울","name":"건국대학교병원","address":"서울특별시 광진구 능동로 120-1","lat":"37.5405799","lng":"127.0719694","treat":"외래진료 및 입원","callnum":"02-1588-1533"},
{"no":"8","sido":"서울","name":"혜민병원","address":"서울특별시 광진구 자양로 85","lat":"37.5352635","lng":"127.0834859","treat":"외래진료","callnum":"02-2049-9000"},
{"no":"9","sido":"서울","name":"고려대학교구로병원","address":"서울특별시 구로구 구로동로 148","lat":"37.4916847","lng":"126.8849601","treat":"외래진료 및 입원","callnum":"02-2626-1114"},
{"no":"10","sido":"서울","name":"구로성심병원","address":"서울특별시 구로구 경인로 427","lat":"37.4995538","lng":"126.8663524","treat":"외래진료","callnum":"02-2067-1500"},
{"no":"11","sido":"서울","name":"우리아이들병원","address":"서울특별시 구로구 새말로15","lat":"37.5021129","lng":"126.8824413","treat":"외래진료","callnum":"02-858-0100"},
{"no":"12","sido":"서울","name":"희명병원","address":"서울특별시 금천구 시흥대로 244","lat":"37.4556812","lng":"126.900584","treat":"외래진료 및 입원","callnum":"02-804-0002"},
{"no":"13","sido":"서울","name":"인제대학교 상계백병원","address":"서울특별시 노원구 동일로1342","lat":"37.6485805","lng":"127.0631253","treat":"외래진료","callnum":"02-950-1114"},
{"no":"14","sido":"서울","name":"노원을지대학교병원","address":"서울특별시 노원구 한글비석로 68","lat":"37.6364346","lng":"127.0699513","treat":"외래진료","callnum":"02-970-8000"},
{"no":"15","sido":"서울","name":"한국원자력의학원원자력병원","address":"서울특별시 노원구 노원로 75","lat":"37.6290554","lng":"127.0826413","treat":"외래진료","callnum":"02-970-2114"},
{"no":"16","sido":"서울","name":"한일병원","address":"서울특별시 도봉구 우이천로 308","lat":"37.6459315","lng":"127.0285858","treat":"외래진료","callnum":"02-901-3114"},
{"no":"17","sido":"서울","name":"삼육서울병원","address":"서울특별시 동대문구 망우로82","lat":"37.5881119","lng":"127.0642348","treat":"외래진료 및 입원","callnum":"02-1577-3675"},
{"no":"18","sido":"서울","name":"경희대학교병원","address":"서울특별시 동대문구 경희대로23","lat":"37.5948368","lng":"127.0522039","treat":"외래진료 및 입원","callnum":"02-958-8114"},
{"no":"19","sido":"서울","name":"서울성심병원","address":"서울특별시 동대문구 왕산로259","lat":"37.5841854","lng":"127.0498254","treat":"외래진료","callnum":"02-966-1616"},
{"no":"20","sido":"서울","name":"중앙대학교병원","address":"서울특별시 동작구 흑석로102","lat":"37.506962","lng":"126.9605696","treat":"외래진료 및 입원","callnum":"02-6299-1114"},
{"no":"21","sido":"서울","name":"서울특별시보라매병원","address":"서울특별시 동작구 보라매로 5길 20","lat":"37.4932664","lng":"126.9243576","treat":"외래진료","callnum":"02-870-2114"},
{"no":"22","sido":"서울","name":"연세대학교신촌세브란스병원","address":"서울특별시 서대문구 연세로 50-1","lat":"37.5615511","lng":"126.9397435","treat":"외래진료 및 입원","callnum":"02-1599-1004"},
{"no":"23","sido":"서울","name":"동신병원","address":"서울특별시 서대문구 연희로 272","lat":"37.5813083","lng":"126.9364744","treat":"외래진료","callnum":"02-396-9161"},
{"no":"24","sido":"서울","name":"가톨릭대학교 서울성모병원","address":"서울특별시 서초구 반포대로 222","lat":"37.5004919","lng":"127.0055016","treat":"외래진료 및 입원","callnum":"02-1588-1511"},
{"no":"25","sido":"서울","name":"한양대학교병원","address":"서울특별시 성동구 왕십리로222-1","lat":"37.5586733","lng":"127.0437999","treat":"외래진료 및 입원","callnum":"02-2290-8114"},
{"no":"26","sido":"서울","name":"고려대학교안암병원","address":"서울특별시 성북구 인촌로 73","lat":"37.5874046","lng":"127.0269126","treat":"외래진료 및 입원","callnum":"1577-0083"},
{"no":"27","sido":"서울","name":"성북우리아이들병원","address":"서울특별시 성북구 동소문로46길10","lat":"37.6068601","lng":"127.0293547","treat":"외래진료","callnum":"02-912-0100"},
{"no":"28","sido":"서울","name":"경찰병원","address":"서울특별시 송파구 송이로123","lat":"37.4965146","lng":"127.1233604","treat":"외래진료","callnum":"02-3400-1114"},
{"no":"29","sido":"서울","name":"이화여자대학교목동병원","address":"서울특별시 양천구 안양천로 1071","lat":"37.5362932","lng":"126.8866836","treat":"외래진료 및 입원","callnum":"02-2650-5114"},
{"no":"30","sido":"서울","name":"홍익병원","address":"서울특별시 양천구 목동로 225","lat":"37.5284873","lng":"126.8636632","treat":"외래진료","callnum":"02-2693-5555"},
{"no":"31","sido":"서울","name":"메디힐병원","address":"서울특별시 양천구 남부순환로 331","lat":"37.5372467","lng":"126.8278542","treat":"외래진료","callnum":"02-2604-7551"},
{"no":"32","sido":"서울","name":"가톨릭대학교 여의도성모병원","address":"서울특별시 영등포구 63로 10","lat":"37.5179441","lng":"126.9360961","treat":"외래진료 및 입원","callnum":"1661-7575"},
{"no":"33","sido":"서울","name":"한림대학교 강남성심병원","address":"서울특별시 영등포구 신길로1","lat":"37.4932758","lng":"126.908684","treat":"외래진료 및 입원","callnum":"02-829-5114"},
{"no":"34","sido":"서울","name":"성애병원","address":"서울특별시 영등포구 여의대방로53길 22","lat":"37.5120882","lng":"126.9222777","treat":"외래진료","callnum":"1811-8114"},
{"no":"35","sido":"서울","name":"순천향대학교부속서울병원","address":"서울특별시 용산구 대사관로 59","lat":"37.5339395","lng":"127.0045258","treat":"외래진료 및 입원","callnum":"02-709-9114"},
{"no":"36","sido":"서울","name":"은평성모병원","address":"서울특별시 은평구 통일로 1021","lat":"37.6336082","lng":"126.9161518","treat":"외래진료 및 입원","callnum":"1811-7755"},
{"no":"37","sido":"서울","name":"청구성심병원","address":"서울특별시 은평구 통일로 873","lat":"37.6208622","lng":"126.9194747","treat":"외래진료 및 입원","callnum":"02-353-5511~9"},
{"no":"38","sido":"서울","name":"서울대학교병원","address":"서울특별시 종로구 대학로101","lat":"37.5789466","lng":"126.9992172","treat":"외래진료 및 입원","callnum":"02-1588-5700"},
{"no":"39","sido":"서울","name":"강북삼성병원","address":"서울특별시 종로구 새문안로29","lat":"37.5683382","lng":"126.96746","treat":"외래진료 및 입원","callnum":"02-2001-2001"},
{"no":"40","sido":"서울","name":"서울적십자병원","address":"서울특별시 종로구 새문안로 9","lat":"37.5675972","lng":"126.9672099","treat":"외래진료","callnum":"02-2002-8000"},
{"no":"41","sido":"서울","name":"세란병원","address":"서울특별시 종로구 통일로 256","lat":"37.5752521","lng":"126.957538","treat":"외래진료","callnum":"02-737-0181"},
{"no":"42","sido":"서울","name":"인제대학교 서울백병원","address":"서울특별시 중구 마른내로9","lat":"37.5649011","lng":"126.9888329","treat":"외래진료","callnum":"02-2270-0114"},
{"no":"43","sido":"서울","name":"국립중앙의료원","address":"서울특별시 중구 을지로 245","lat":"37.567452","lng":"127.0059251","treat":"외래진료","callnum":"02-2260-7114"},
{"no":"44","sido":"서울","name":"동부제일병원","address":"서울특별시 중랑구 망우로511","lat":"37.6006947","lng":"127.1090366","treat":"외래진료","callnum":"02-437-5011"},
{"no":"45","sido":"서울","name":"녹색병원","address":"서울특별시 중랑구 사가정로 49길 53","lat":"37.5835704","lng":"127.0860529","treat":"외래진료","callnum":"02-490-2000"},
{"no":"46","sido":"서울","name":"서울특별시서울의료원","address":"서울특별시 중랑구 신내로 156","lat":"37.6128791","lng":"127.0986633","treat":"외래진료 및 입원","callnum":"02-2276-7000"},
{"no":"47","sido":"부산","name":"행복한어린이병원","address":"부산광역시 강서구 명지국제1로25 8~10층","lat":"35.0912897","lng":"128.9033465","treat":"외래진료","callnum":"051-264-9500"},
{"no":"48","sido":"부산","name":"명지아동병원","address":"부산광역시 강서구 명지국제8로 240 4층","lat":"35.0978251","lng":"128.9189162","treat":"외래진료","callnum":"051-717-0230"},
{"no":"49","sido":"부산","name":"기장병원","address":"부산광역시 기장군 기장읍 대청로72번길 6","lat":"35.2358649","lng":"129.2163304","treat":"외래진료","callnum":"051-723-0171"},
{"no":"50","sido":"부산","name":"정관우리아동병원","address":"부산광역시 기장군 정관중앙로 56 프라임빌딩 3-5층","lat":"35.3217857","lng":"129.1795638","treat":"외래진료","callnum":"051-727-7811"},
{"no":"51","sido":"부산","name":"부산성모병원","address":"부산광역시 남구 용호로 232번길 25-14","lat":"35.1105027","lng":"129.1091924","treat":"외래진료","callnum":"051-933-7114"},
{"no":"52","sido":"부산","name":"부산아동병원","address":"부산광역시 남구 수영로 228","lat":"35.1348209","lng":"129.0914611","treat":"외래진료","callnum":"051-612-7582"},
{"no":"53","sido":"부산","name":"김원묵기념봉생병원","address":"부산광역시 동구 중앙대로 401","lat":"35.1309108","lng":"129.050439","treat":"외래진료","callnum":"051-664-4000"},
{"no":"54","sido":"부산","name":"좋은문화병원","address":"부산광역시 동구 범일로119","lat":"35.1407519","lng":"129.0589711","treat":"외래진료","callnum":"051-644-2002"},
{"no":"55","sido":"부산","name":"대동병원","address":"부산광역시 동래구 충렬대로 187","lat":"35.2042023","lng":"129.0801767","treat":"외래진료","callnum":"051-554-1233"},
{"no":"56","sido":"부산","name":"광혜병원","address":"부산광역시 동래구 충렬대로 96","lat":"35.2068062","lng":"129.0711728","treat":"외래진료","callnum":"051-503-2111"},
{"no":"57","sido":"부산","name":"동래봉생병원","address":"부산광역시 동래구 안연로 109번길 27","lat":"35.1969022","lng":"129.0961123","treat":"외래진료","callnum":"051-520-5500"},
{"no":"58","sido":"부산","name":"부민병원","address":"부산광역시 북구 만덕대로59","lat":"35.2118919","lng":"129.0112061","treat":"외래진료","callnum":"051-330-3000"},
{"no":"59","sido":"부산","name":"좋은삼선병원","address":"부산광역시 사상구 가야대로326","lat":"35.1502463","lng":"129.0079077","treat":"외래진료","callnum":"051-322-0900"},
{"no":"60","sido":"부산","name":"부산대학교병원","address":"부산광역시 서구 구덕로 179","lat":"35.1006623","lng":"129.0184736","treat":"외래진료 및 입원","callnum":"051-240-7000"},
{"no":"61","sido":"부산","name":"삼육부산병원","address":"부산광역시 서구 대티로170","lat":"35.1125233","lng":"129.0111069","treat":"외래진료","callnum":"051-242-9751"},
{"no":"62","sido":"부산","name":"좋은강안병원","address":"부산광역시 수영구 수영로493","lat":"35.1503451","lng":"129.110051","treat":"외래진료","callnum":"051-625-0900"},
{"no":"63","sido":"부산","name":"부산광역시의료원","address":"부산광역시 연제구 월드컵대로 359","lat":"35.187166","lng":"129.0598035","treat":"외래진료","callnum":"051-507-3000"},
{"no":"64","sido":"부산","name":"한양류마디병원","address":"부산광역시 연제구 과정로272(연산동)","lat":"35.1882615","lng":"129.0977091","treat":"외래진료","callnum":"051-752-1990"},
{"no":"65","sido":"부산","name":"해동병원","address":"부산광역시 영도구 태종로133","lat":"35.0920009","lng":"129.0437983","treat":"외래진료","callnum":"051-412-6161"},
{"no":"66","sido":"부산","name":"영도병원","address":"부산광역시 영도구 태종로85","lat":"35.0922005","lng":"129.0404998","treat":"외래진료","callnum":"051-412-8881"},
{"no":"67","sido":"부산","name":"아이(i)서울병원","address":"부산광역시 영도구 영선대로 75 58911층 일부(영선동2가 삼호빌딩)","lat":"35.0877733","lng":"129.0417047","treat":"외래진료","callnum":"051-730-8300"},
{"no":"68","sido":"부산","name":"온종합병원","address":"부산광역시 진구 가야대로 721","lat":"35.08798348","lng":"129.0417008","treat":"외래진료","callnum":"051-607-0114"},
{"no":"69","sido":"부산","name":"해운대푸른바다어린이병원","address":"부산광역시 해운대구 좌동순환로 505 1213층","lat":"35.1656535","lng":"129.1682161","treat":"외래진료","callnum":"051-714-3501"},
{"no":"70","sido":"인천","name":"비에스종합병원","address":"인천광역시 강화군 강화읍 충렬사로 31","lat":"37.7359287","lng":"126.4861959","treat":"외래진료","callnum":"032-290-0001"},
{"no":"71","sido":"인천","name":"한림병원","address":"인천광역시 계양구 장제로722","lat":"37.5322447","lng":"126.7343307","treat":"외래진료 및 입원","callnum":"032-540-9114"},
{"no":"72","sido":"인천","name":"메디플렉스 세종병원","address":"인천광역시 계양구 계양문화로20","lat":"37.5325061","lng":"126.7368606","treat":"외래진료 및 입원","callnum":"032-240-8000"},
{"no":"73","sido":"인천","name":"길병원","address":"인천광역시 남동구 남동대로 774번길 21","lat":"37.4521151","lng":"126.7092242","treat":"외래진료 및 입원","callnum":"032-460-3114"},
{"no":"74","sido":"인천","name":"인천광역시의료원","address":"인천광역시 동구 방축로 217","lat":"37.4784138","lng":"126.6692239","treat":"외래진료","callnum":"032-580-6000"},
{"no":"75","sido":"인천","name":"인천백병원","address":"인천광역시 동구 샛골로 214","lat":"37.481698","lng":"126.6458293","treat":"외래진료","callnum":"032-765-7070"},
{"no":"76","sido":"인천","name":"인천사랑병원","address":"인천광역시 미추홀구 미추홀대로 726","lat":"37.4621977","lng":"126.6806792","treat":"외래진료","callnum":"032-457-2000"},
{"no":"77","sido":"인천","name":"현대유비스병원","address":"인천광역시 미추홀구 독배로503","lat":"37.4617638","lng":"126.6431596","treat":"외래진료","callnum":"032-888-7575"},
{"no":"78","sido":"인천","name":"인천바로병원","address":"인천광역시 미추홀구 인주대로458","lat":"37.450543","lng":"126.6875632","treat":"외래진료","callnum":"032-722-8585"},
{"no":"79","sido":"인천","name":"가톨릭대학교 인천성모병원","address":"인천광역시 부평구 동수로 56","lat":"37.4843814","lng":"126.7250303","treat":"외래진료 및 입원","callnum":"032-1544-9004"},
{"no":"80","sido":"인천","name":"뉴성민병원","address":"인천광역시 서구 신석로 70","lat":"37.5097691","lng":"126.670002","treat":"외래진료","callnum":"032-726-1000"},
{"no":"81","sido":"인천","name":"나은병원","address":"인천광역시 서구 원적로23","lat":"37.4890201","lng":"126.6797779","treat":"외래진료 및 입원","callnum":"032-584-0114"},
{"no":"82","sido":"인천","name":"검단탑병원","address":"인천광역시 서구 청마로19번길5","lat":"37.5929338","lng":"126.6709124","treat":"외래진료","callnum":"032-590-0114"},
{"no":"83","sido":"인천","name":"온누리병원","address":"인천광역시 서구 완정로 119","lat":"37.60283553","lng":"126.6543122","treat":"외래진료","callnum":"032-567-6200"},
{"no":"84","sido":"인천","name":"가톨릭관동대학교 국제성모병원","address":"인천광역시 서구  심곡로100번길 25","lat":"37.5423217","lng":"126.6835684","treat":"외래진료 및 입원","callnum":"1600-8291 "},
{"no":"85","sido":"인천","name":"청라연세어린이병원","address":"인천광역시 서구 중봉대로 612번길 10-16 마르씨엘 3~5층","lat":"37.5333836","lng":"126.6516272","treat":"외래진료","callnum":"032-590-1500"},
{"no":"86","sido":"인천","name":"나사렛국제병원","address":"인천광역시 연수구 먼우금로 98","lat":"37.4079497","lng":"126.670494","treat":"외래진료","callnum":"032-899-9999"},
{"no":"87","sido":"인천","name":"인천적십자병원","address":"인천광역시 연수구 원인재로 263","lat":"37.4184815","lng":"126.6897498","treat":"외래진료 및 입원","callnum":"032-899-4000"},
{"no":"88","sido":"인천","name":"인천기독병원","address":"인천광역시 중구 답동로30번길10","lat":"37.4711238","lng":"126.6320814","treat":"외래진료","callnum":"032-270-8000"},
{"no":"89","sido":"인천","name":"인하대학교병원","address":"인천광역시 중구 인항로 27","lat":"37.4588582","lng":"126.6341811","treat":"외래진료 및 입원","callnum":"032-890-2114"},
{"no":"90","sido":"대구","name":"영남대학교병원","address":"대구광역시 남구 현충로 170","lat":"35.8475619","lng":"128.584771","treat":"외래진료","callnum":"053-623-8001"},
{"no":"91","sido":"대구","name":"드림병원","address":"대구광역시 남구 대명로 153","lat":"35.8395988","lng":"128.5744734","treat":"외래진료","callnum":"053-640-8800"},
{"no":"92","sido":"대구","name":"구병원","address":"대구광역시 달서구 감삼북길 141","lat":"35.8506855","lng":"128.5413849","treat":"외래진료","callnum":"053-560-9114"},
{"no":"93","sido":"대구","name":"삼일병원","address":"대구광역시 달서구 월배로 446","lat":"35.8329783","lng":"128.5543807","treat":"외래진료 및 입원","callnum":"053-659-3100"},
{"no":"94","sido":"대구","name":"대구파티마병원","address":"대구광역시 동구 아양로99","lat":"35.8840124","lng":"128.6239471","treat":"외래진료","callnum":"053-1688-7770"},
{"no":"95","sido":"대구","name":"대구가톨릭대학교칠곡가톨릭병원","address":"대구광역시 북구 칠곡중앙대로440","lat":"35.9349228","lng":"128.5492621","treat":"외래진료","callnum":"053-320-2500"},
{"no":"96","sido":"대구","name":"경북대학교병원","address":"대구광역시 중구 동덕로 130","lat":"35.8661193","lng":"128.6049495","treat":"외래진료","callnum":"053-420-5114"},
{"no":"97","sido":"광주","name":"첨단종합병원","address":"광주광역시 광산구 첨단중앙로 170번길 59","lat":"35.2211093","lng":"126.8453031","treat":"외래진료","callnum":"062-601-8114"},
{"no":"98","sido":"광주","name":"KS병원","address":"광주광역시 광산구 왕버들로 220","lat":"35.1979002","lng":"126.8332011","treat":"외래진료","callnum":"062-975-9000"},
{"no":"99","sido":"광주","name":"하나아동병원","address":"광주광역시 광산구 임방울대로 784 2층","lat":"35.2172675","lng":"126.8441493","treat":"외래진료","callnum":"062-975-3300"},
{"no":"100","sido":"광주","name":"광산하나아동병원","address":"광주광역시 광산구 장신로 141 3층","lat":"35.1910037","lng":"126.8256356","treat":"외래진료","callnum":"062-467-3300 "},
{"no":"101","sido":"광주","name":"광산수완미래아동병원","address":"광주광역시 광산구 임방울대로 162(운남동)","lat":"35.1755984","lng":"126.8181287","treat":"외래진료","callnum":"062-605-2500"},
{"no":"102","sido":"광주","name":"광주기독병원","address":"광주광역시 남구 양림로 37","lat":"35.1366732","lng":"126.9120485","treat":"외래진료 및 입원","callnum":"062-650-5000"},
{"no":"103","sido":"광주","name":"미래아동병원","address":"광주광역시 남구 대남대로 131","lat":"35.1336776","lng":"126.9107058","treat":"외래진료","callnum":"062-600-2500"},
{"no":"104","sido":"광주","name":"전남대학교병원","address":"광주광역시 동구 제봉로42","lat":"35.14138","lng":"126.9223009","treat":"외래진료","callnum":"1899-0000"},
{"no":"105","sido":"광주","name":"서광병원","address":"광주광역시 서구 금화로 59번길6","lat":"35.1325308","lng":"126.8557059","treat":"외래진료","callnum":"062-600-8000"},
{"no":"106","sido":"광주","name":"북구미래아동병원","address":"광주광역시 북구 설죽로 346","lat":"35.190319","lng":"126.8995741","treat":"외래진료","callnum":"062-250-2500"},
{"no":"107","sido":"대전","name":"대전한국병원","address":"대전광역시 동구 동서대로1672","lat":"36.3481976","lng":"127.4358185","treat":"외래진료","callnum":"042-606-1000"},
{"no":"108","sido":"대전","name":"대전을지대학교병원","address":"대전광역시 서구 둔산서로95","lat":"36.3553125","lng":"127.381974","treat":"외래진료 및 입원","callnum":"042-259-1000"},
{"no":"109","sido":"대전","name":"건양대학교병원","address":"대전광역시 서구 가수원동 관저동로 158","lat":"36.3074832","lng":"127.3430782","treat":"외래진료 및 입원","callnum":"1577-3330"},
{"no":"110","sido":"대전","name":"조이병원","address":"대전광역시 서구 계룡로 553번길 18","lat":"36.3436502","lng":"127.3854416","treat":"외래진료","callnum":"042-485-2235"},
{"no":"111","sido":"대전","name":"유성선병원","address":"대전광역시 유성구 북유성대로93","lat":"36.3750287","lng":"127.3248129","treat":"외래진료","callnum":"042-1588-7011"},
{"no":"112","sido":"대전","name":"봉키병원","address":"대전광역시 유성구 계룡로120 6-9층","lat":"36.3526481","lng":"127.3437128","treat":"외래진료","callnum":"1522-6705"},
{"no":"113","sido":"대전","name":"코젤병원","address":"대전광역시 유성구 계룡로 150 6~7층(봉명동)","lat":"36.3517912","lng":"127.3468841","treat":"외래진료","callnum":"0507-1437-0000"},
{"no":"114","sido":"대전","name":"대전코젤병원","address":"대전광역시 유성구 계백로 927","lat":"36.3010385","lng":"127.3267427","treat":"외래진료","callnum":"042-520-0000"},
{"no":"115","sido":"대전","name":"가톨릭대학교 대전성모병원","address":"대전광역시 중구 대흥로64","lat":"36.3226182","lng":"127.4203439","treat":"외래진료 및 입원","callnum":"042-220-9114"},
{"no":"116","sido":"대전","name":"대전선병원","address":"대전광역시 중구 목중로29","lat":"36.3360334","lng":"127.4102304","treat":"외래진료","callnum":"042-220-8114"},
{"no":"117","sido":"울산","name":"울산병원","address":"울산광역시 남구 월평로171번길 13","lat":"35.5462428","lng":"129.3230878","treat":"외래진료","callnum":"052-259-5000"},
{"no":"118","sido":"울산","name":"좋은삼정병원","address":"울산광역시 남구 북부순환도로 51","lat":"35.5528276","lng":"129.268933","treat":"외래진료","callnum":"052-220-7500"},
{"no":"119","sido":"울산","name":"중앙병원","address":"울산광역시 남구 문수로 480번길 10","lat":"35.5315302","lng":"129.3051934","treat":"외래진료","callnum":"052-226-1100"},
{"no":"120","sido":"울산","name":"울산대학교병원","address":"울산광역시 동구 방어진순환도로877","lat":"35.5200368","lng":"129.4286136","treat":"외래진료 및 입원","callnum":"052-250-7000"},
{"no":"121","sido":"울산","name":"울산시티병원","address":"울산광역시 북구 산업로1007","lat":"35.5828968","lng":"129.3588972","treat":"외래진료","callnum":"052-280-9000"},
{"no":"122","sido":"울산","name":"울산엘리야병원","address":"울산광역시 북구 호계로 285","lat":"35.6288929","lng":"129.3505898","treat":"외래진료","callnum":"052-290-2100"},
{"no":"123","sido":"울산","name":"서울산보람병원","address":"울산광역시 울주군 삼남면 중평로 53","lat":"35.559911","lng":"129.1207882","treat":"외래진료","callnum":"052-255-7114"},
{"no":"124","sido":"세종","name":"엔케이세종병원","address":"세종특별자치시 한누리대로 161","lat":"36.4796245","lng":"127.2622609","treat":"외래진료","callnum":"044-850-7700 "},
{"no":"125","sido":"경기","name":"명지병원","address":"경기도 고양시 덕양구 화수로 14번길 55","lat":"37.6421981","lng":"126.8306261","treat":"외래진료 및 입원","callnum":"031-810-5114"},
{"no":"126","sido":"경기","name":"자인메디병원","address":"경기도 고양시 덕양구 중앙로 555","lat":"37.6229754","lng":"126.835685","treat":"외래진료","callnum":"1688-5533"},
{"no":"127","sido":"경기","name":"국민건강보험공단 일산병원","address":"경기도 고양시 일산동구 일산로100","lat":"37.6456142","lng":"126.7931791","treat":"외래진료","callnum":"031-900-0114"},
{"no":"128","sido":"경기","name":"동국대학교 일산불교병원","address":"경기도 고양시 일산동구 동국로27","lat":"37.6764101","lng":"126.806397","treat":"외래진료 및 입원","callnum":"031-961-7000"},
{"no":"129","sido":"경기","name":"인제대학교 일산백병원","address":"경기도 고양시 일산서구 주화로170","lat":"37.674271","lng":"126.7503763","treat":"외래진료 및 입원","callnum":"031-910-7114"},
{"no":"130","sido":"경기","name":"광명성애병원","address":"경기도 광명시 디지털로 36","lat":"37.4732344","lng":"126.8719957","treat":"외래진료","callnum":"02-2680-7114"},
{"no":"131","sido":"경기","name":"아이원병원","address":"경기도 광명시 소하로 75번길 10 하나로빌딩","lat":"37.4479301","lng":"126.884977","treat":"외래진료","callnum":"1833-7588"},
{"no":"132","sido":"경기","name":"한양대학교구리병원","address":"경기도 구리시 경춘로153","lat":"37.6014457","lng":"127.1324363","treat":"외래진료 및 입원","callnum":"031-560-2114"},
{"no":"133","sido":"경기","name":"원진녹색병원","address":"경기도 구리시 동구릉로 65","lat":"37.6059435","lng":"127.1338791","treat":"외래진료","callnum":"031-550-1111"},
{"no":"134","sido":"경기","name":"원광대학교의과대학산본병원","address":"경기도 군포시 산본로 321","lat":"37.3594087","lng":"126.9336197","treat":"외래진료","callnum":"031-390-2300"},
{"no":"135","sido":"경기","name":"지샘병원","address":"경기도 군포시 군포로 591","lat":"37.3586672","lng":"126.9474131","treat":"외래진료","callnum":"031-389-3000"},
{"no":"136","sido":"경기","name":"김포우리병원","address":"경기도 김포시 감암로11","lat":"37.6323078","lng":"126.710702","treat":"외래진료 및 입원","callnum":"031-999-1000"},
{"no":"137","sido":"경기","name":"뉴고려병원","address":"경기도 김포시 김포한강3로283","lat":"37.640899","lng":"126.6601781","treat":"외래진료 및 입원","callnum":"031-980-9114"},
{"no":"138","sido":"경기","name":"히즈메디병원","address":"경기도 김포시 김포대로 681","lat":"37.6111978","lng":"126.7348965","treat":"외래진료 및 입원","callnum":"1588-0223"},
{"no":"139","sido":"경기","name":"남양주한양병원","address":"경기도 남양주시 오남읍 양지로47-55","lat":"37.6824973","lng":"127.2044826","treat":"외래진료 및 입원","callnum":"031-510-0114"},
{"no":"140","sido":"경기","name":"중앙대의료원교육협력현대병원","address":"경기도 남양주시 진접읍 봉현로21","lat":"37.7154237","lng":"127.1798922","treat":"외래진료 및 입원","callnum":"031-574-9119"},
{"no":"141","sido":"경기","name":"아이맘어린이병원","address":"경기도 남양주시 다산중앙로 105-8 성산플레이스4차 3-5층","lat":"37.6227149","lng":"127.1529198","treat":"외래진료","callnum":"031-563-9999"},
{"no":"142","sido":"경기","name":"세종병원","address":"경기도 부천시 호현로489번길 28","lat":"37.4812327","lng":"126.7915089","treat":"외래진료 및 입원","callnum":"1599-6677"},
{"no":"143","sido":"경기","name":"가톨릭대학교 부천성모병원","address":"경기도 부천시 소사로327","lat":"37.4871484","lng":"126.7928723","treat":"외래진료 및 입원","callnum":"032-1577-0675"},
{"no":"144","sido":"경기","name":"순천향대학교부속부천병원","address":"경기도 부천시 조마루로170","lat":"37.4980717","lng":"126.7626598","treat":"외래진료 및 입원","callnum":"032-621-5114"},
{"no":"145","sido":"경기","name":"다니엘종합병원","address":"경기도 부천시 중동로 361","lat":"37.512307","lng":"126.7694717","treat":"외래진료","callnum":"032-670-0001"},
{"no":"146","sido":"경기","name":"부천우리병원","address":"경기도 부천시 소사로 726","lat":"37.5208642","lng":"126.8052028","treat":"외래진료","callnum":"032-672-4100"},
{"no":"147","sido":"경기","name":"차의과학대학교분당차병원","address":"경기도 성남시 분당구 야탑로 59","lat":"37.4102534","lng":"127.1254736","treat":"외래진료 및 입원","callnum":"1577-4488 "},
{"no":"148","sido":"경기","name":"분당제생병원","address":"경기도 성남시 분당구 서현로 180번길 20","lat":"37.3881037","lng":"127.1216317","treat":"외래진료 및 입원","callnum":"031-779-0000"},
{"no":"149","sido":"경기","name":"분당서울대학교병원","address":"경기도 성남시 분당구 구미로 173번길 82","lat":"37.3502891","lng":"127.1245443","treat":"외래진료","callnum":"031-1588-3369"},
{"no":"150","sido":"경기","name":"정병원","address":"경기도 성남시 수정구 수정로 76","lat":"37.4397987","lng":"127.1290286","treat":"외래진료","callnum":"031-750-6000"},
{"no":"151","sido":"경기","name":"성남중앙병원","address":"경기도 성남시 중원구 산성대로 476번길","lat":"37.45273623","lng":"127.1620755","treat":"외래진료","callnum":"1577-7986"},
{"no":"152","sido":"경기","name":"화홍병원","address":"경기도 수원시 권선구 호매실로90번길 98","lat":"37.2601451","lng":"126.9638921","treat":"외래진료","callnum":"1588-0097"},
{"no":"153","sido":"경기","name":"아주대학교병원","address":"경기도 수원시 영통구 월드컵로 164","lat":"37.2795738","lng":"127.0477479","treat":"외래진료 및 입원","callnum":"031-1688-6114"},
{"no":"154","sido":"경기","name":"가톨릭대학교 성빈센트병원","address":"경기도 수원시 팔달구 중부대로 93","lat":"37.2780316","lng":"127.027628","treat":"외래진료 및 입원","callnum":"1577-8588"},
{"no":"155","sido":"경기","name":"신천연합병원","address":"경기도 시흥시 복지로 57","lat":"37.4445206","lng":"126.7893762","treat":"외래진료","callnum":"031-310-6300"},
{"no":"156","sido":"경기","name":"센트럴병원","address":"경기도 시흥시 공단1대로237","lat":"37.3367442","lng":"126.728196","treat":"외래진료 및 입원","callnum":"031-8041-3531"},
{"no":"157","sido":"경기","name":"시화병원","address":"경기도 시흥시 옥구천서로337","lat":"37.3529151","lng":"126.7245709","treat":"외래진료","callnum":"031-432-2600"},
{"no":"158","sido":"경기","name":"근로복지공단안산병원","address":"경기도 안산시 구룡로 87","lat":"37.3166918","lng":"126.874565","treat":"외래진료","callnum":"031-500-1114"},
{"no":"159","sido":"경기","name":"고려대학교안산병원","address":"경기도 안산시 단원구 적금로 123","lat":"37.3190854","lng":"126.8251021","treat":"외래진료 및 입원","callnum":"031-412-5114"},
{"no":"160","sido":"경기","name":"의료법인 플러스의료재단 단원병원","address":"경기도 안산시 단원구 원포공원1로 20","lat":"37.3002344","lng":"126.8132814","treat":"외래진료","callnum":"031-8040-6600"},
{"no":"161","sido":"경기","name":"안성성모병원","address":"경기도 안성시 시장길58","lat":"37.0061192","lng":"127.2708901","treat":"외래진료","callnum":"031-675-6007"},
{"no":"162","sido":"경기","name":"경기도의료원안성병원","address":"경기도 안성시 남파로 95 ","lat":"37.0173543","lng":"127.2603654","treat":"외래진료","callnum":"031-8046-5000"},
{"no":"163","sido":"경기","name":"한림대학교성심병원","address":"경기도 안양시 동안구 관평로170번길 22","lat":"37.3916394","lng":"126.9619495","treat":"외래진료","callnum":"031-380-1500"},
{"no":"164","sido":"경기","name":"안양샘병원","address":"경기도 안양시 만안구 삼덕로 9","lat":"37.3930905","lng":"126.924684","treat":"외래진료","callnum":"031-467-9114"},
{"no":"165","sido":"경기","name":"세종여주병원","address":"경기도 여주시 청심로 39","lat":"37.3014366","lng":"127.62523","treat":"외래진료 및 입원","callnum":"031-880-7700"},
{"no":"166","sido":"경기","name":"오산한국병원","address":"경기도 오산시 밀머리로 1번길 16","lat":"37.1413494","lng":"127.075507","treat":"외래진료","callnum":"1566-3534"},
{"no":"167","sido":"경기","name":"서울어린이병원","address":"경기도 오산시 경기대로 209 3층","lat":"37.1434385","lng":"127.0730052","treat":"외래진료","callnum":"031-375-4197"},
{"no":"168","sido":"경기","name":"웰봄병원","address":"경기도 오산시 경기대로 534 5층 일부 및 6-10층","lat":"37.1706267","lng":"127.0640704","treat":"외래진료","callnum":"031-373-7585"},
{"no":"169","sido":"경기","name":"연세대학교 용인세브란스병원","address":"경기도 용인시 기흥구 동백죽전대로 363","lat":"37.2705673","lng":"127.1463724","treat":"외래진료 및 입원","callnum":"1899-1004"},
{"no":"170","sido":"경기","name":"강남병원","address":"경기도 용인시 기흥구 중부대로411","lat":"37.2737805","lng":"127.1115733","treat":"외래진료 및 입원","callnum":"031-300-0114"},
{"no":"171","sido":"경기","name":"다보스병원","address":"경기도 용인시 처인구 처인구백옥대로1082번길 18","lat":"37.23151602","lng":"127.2113662","treat":"외래진료","callnum":"031-8021-2114"},
{"no":"172","sido":"경기","name":"가톨릭대학교 의정부성모병원","address":"경기도 의정부시 천보로 271","lat":"37.7586493","lng":"127.0779677","treat":"외래진료 및 입원","callnum":"031-1661-7500"},
{"no":"173","sido":"경기","name":"의정부백병원","address":"경기도 의정부시 금신로 322","lat":"37.7453507","lng":"127.0620316","treat":"외래진료","callnum":"031-856-8111"},
{"no":"174","sido":"경기","name":"의정부을지대학교병원","address":"경기도 의정부시 동일로 712(금오동)","lat":"37.7505289","lng":"127.0504485","treat":"외래진료 및 입원","callnum":"031-951-1000"},
{"no":"175","sido":"경기","name":"추병원","address":"경기도 의정부시 평화로 650","lat":"37.7497291","lng":"127.0451367","treat":"외래진료","callnum":"031-845-7777"},
{"no":"176","sido":"경기","name":"경기도의료원 이천병원","address":"경기도 이천시 경충대로 2742 번길","lat":"37.28266411","lng":"127.4328137","treat":"외래진료","callnum":"031-630-4200"},
{"no":"177","sido":"경기","name":"메디인병원","address":"경기도 파주시 시청로6","lat":"37.7580498","lng":"126.7747973","treat":"외래진료","callnum":"031-1566-1991"},
{"no":"178","sido":"경기","name":"박애병원","address":"경기도 평택시 평택2로20번길3","lat":"36.9930403","lng":"127.0890785","treat":"외래진료","callnum":"031-652-2121"},
{"no":"179","sido":"경기","name":"평택굿모닝병원","address":"경기도 평택시 중앙로338","lat":"36.9906551","lng":"127.1205164","treat":"외래진료 및 입원","callnum":"031-659-7700"},
{"no":"180","sido":"경기","name":"평택성모병원","address":"경기도 평택시 평택로284","lat":"37.0084255","lng":"127.0743215","treat":"외래진료 및 입원","callnum":"031-1800-8800"},
{"no":"181","sido":"경기","name":"박병원","address":"경기도 평택시 송탄로 33","lat":"37.0481177","lng":"127.0568641","treat":"외래진료 및 입원","callnum":"031-666-2600"},
{"no":"182","sido":"경기","name":"화성중앙종합병원","address":"경기도 화성시 향남읍 발안로5","lat":"37.1313537","lng":"126.9107747","treat":"외래진료","callnum":"031-352-8114"},
{"no":"183","sido":"경기","name":"한림대학교 동탄성심병원","address":"경기도 화성시 큰재봉길7","lat":"37.2165358","lng":"127.0799422","treat":"외래진료 및 입원","callnum":"031-8086-3000"},
{"no":"184","sido":"경기","name":"원광종합병원","address":"경기도 화성시 화산북로21","lat":"37.2100897","lng":"127.0080752","treat":"외래진료","callnum":"031-8077-7200"},
{"no":"185","sido":"경기","name":"화성디에스병원","address":"경기도 화성시 남양읍 시청로 160번길 46-13","lat":"37.1992311","lng":"126.825712","treat":"외래진료 및 입원","callnum":"1600-5982"},
{"no":"186","sido":"경기","name":"센트럴아동병원","address":"경기도 화성시 동탄지성로 17 지하1-2층 일부","lat":"37.2044909","lng":"127.0722027","treat":"외래진료","callnum":"031-8060-5000"},
{"no":"187","sido":"강원","name":"강릉아산병원","address":"강원도 강릉시 사천면 방동길 38","lat":"37.8184118","lng":"128.8578312","treat":"외래진료 및 입원","callnum":"033-610-3114"},
{"no":"188","sido":"강원","name":"강원도삼척의료원","address":"강원도 삼척시 오십천로 418","lat":"37.4401965","lng":"129.1638963","treat":"외래진료","callnum":"033-572-1141"},
{"no":"189","sido":"강원","name":"원주의료원","address":"강원도 원주시 서원대로 387","lat":"37.3330711","lng":"127.9486431","treat":"외래진료","callnum":"033-760-4500"},
{"no":"190","sido":"강원","name":"한림대학교춘천성심병원","address":"강원도 춘천시 삭주로77","lat":"37.8842934","lng":"127.7400384","treat":"외래진료","callnum":"033-240-5000"},
{"no":"191","sido":"강원","name":"강원대학교병원","address":"강원도 춘천시 백령로156","lat":"37.8748876","lng":"127.7445841","treat":"외래진료 및 입원","callnum":"033-258-2000"},
{"no":"192","sido":"충북","name":"제천서울병원","address":"충청북도 제천시 숭문로57","lat":"37.1387287","lng":"128.2061642","treat":"외래진료","callnum":"043-642-7606"},
{"no":"193","sido":"충북","name":"제천명지병원","address":"충청북도 제천시 내토로 991","lat":"37.1635034","lng":"128.2339525","treat":"외래진료","callnum":"043-640-8114"},
{"no":"194","sido":"충북","name":"진천성모병원","address":"충청북도 진천군 진천읍 중앙북로24","lat":"36.8587865","lng":"127.4397028","treat":"외래진료 및 입원","callnum":"043-533-1711"},
{"no":"195","sido":"충북","name":"한국병원","address":"충청북도 청주시 상당구 단재로106","lat":"36.61972","lng":"127.4963756","treat":"외래진료","callnum":"043-222-7000"},
{"no":"196","sido":"충북","name":"효성병원","address":"충청북도 청주시 상당구 쇠내로 16","lat":"36.6244474","lng":"127.4954392","treat":"외래진료","callnum":"043-221-5000"},
{"no":"197","sido":"충북","name":"청주의료원","address":"충청북도 청주시 서원구 흥덕로 48","lat":"36.6404384","lng":"127.4733606","treat":"외래진료 및 입원","callnum":"043-279-0114"},
{"no":"198","sido":"충북","name":"청주성모병원","address":"충청북도 청주시 청원구 주성구 173-19","lat":"36.67419288","lng":"127.4863113","treat":"외래진료","callnum":"043-219-8000"},
{"no":"199","sido":"충북","name":"하나병원","address":"충청북도 청주시 흥덕구 2순환로 1262(가경동)","lat":"36.6235602","lng":"127.4305649","treat":"외래진료","callnum":"043-230-6114"},
{"no":"200","sido":"충북","name":"베스티안병원","address":"충청북도 청주시 흥덕구 오송읍 오송생명1로 191","lat":"36.6364268","lng":"127.3216446","treat":"외래진료","callnum":"043-910-7575"},
{"no":"201","sido":"충북","name":"건국대학교 충주병원","address":"충청북도 충주시 국원대로 82","lat":"36.9788872","lng":"127.9288211","treat":"외래진료","callnum":"043-840-8200"},
{"no":"202","sido":"충남","name":"백제병원","address":"충청남도 논산시 시민로294번길14","lat":"36.1924195","lng":"127.094471","treat":"외래진료","callnum":"041-730-8888"},
{"no":"203","sido":"충남","name":"서산중앙병원","address":"충청남도 서산시 수석산업로5","lat":"36.7814306","lng":"126.5037135","treat":"외래진료","callnum":"041-661-1000"},
{"no":"204","sido":"충남","name":"아산충무병원","address":"충청남도 아산시 문화로 381(모종동)","lat":"36.7791431","lng":"127.0197732","treat":"외래진료 및 입원","callnum":"041-536-6666"},
{"no":"205","sido":"충남","name":"현대병원","address":"충청남도 아산시 시민로 388","lat":"36.7831232","lng":"127.0009907","treat":"외래진료 및 입원","callnum":"041-546-3636"},
{"no":"206","sido":"충남","name":"꿈크는아이병원","address":"충청남도 아산시 배방읍 배방로13번길 13","lat":"36.7759731","lng":"127.0556719","treat":"외래진료","callnum":"041-533-3391"},
{"no":"207","sido":"충남","name":"충청남도천안의료원","address":"충청남도 천안시 동남구 충절로 537","lat":"36.7752778","lng":"127.1794086","treat":"외래진료","callnum":"041-570-7114"},
{"no":"208","sido":"충남","name":"단국대학교병원","address":"충청남도 천안시 동남구 망향로 201","lat":"36.8425153","lng":"127.1731408","treat":"외래진료 및 입원","callnum":"041-1588-0063"},
{"no":"209","sido":"충남","name":"순천향대학교 부속 천안병원","address":"충청남도 천안시 동남구 순천향6길 31","lat":"36.8029996","lng":"127.1364059","treat":"외래진료 및 입원","callnum":"1577-7523"},
{"no":"210","sido":"충남","name":"천안우리병원","address":"충청남도 천안시 동남구 남부대로 350","lat":"36.7810154","lng":"127.155821","treat":"외래진료","callnum":"041-590-9000"},
{"no":"211","sido":"충남","name":"천안충무병원","address":"충청남도 천안시 서북구 다가말3길8","lat":"36.7974037","lng":"127.1314935","treat":"외래진료 및 입원","callnum":"041-570-7555"},
{"no":"212","sido":"충남","name":"두정이진병원","address":"충청남도 천안시 서북구 동서대로 65","lat":"36.8261081","lng":"127.1305975","treat":"외래진료","callnum":"041-562-2021"},
{"no":"213","sido":"전북","name":"군산의료원","address":"전라북도 군산시 의료원로 27","lat":"35.9545829","lng":"126.7117153","treat":"외래진료","callnum":"063-472-5000"},
{"no":"214","sido":"전북","name":"동군산병원","address":"전라북도 군산시 조촌로 149","lat":"35.9773839","lng":"126.737102","treat":"외래진료 및 입원","callnum":"063-440-0300"},
{"no":"215","sido":"전북","name":"키움병원","address":"전라남도 군산시 궁포안2길 24","lat":"37.60689629","lng":"127.1766039","treat":"외래진료","callnum":"063-467-0001"},
{"no":"216","sido":"전북","name":"익산병원","address":"전라북도 익산시 무왕로 969","lat":"35.9616887","lng":"126.9664633","treat":"외래진료","callnum":"063-840-9114"},
{"no":"217","sido":"전북","name":"전북대학교병원","address":"전라북도 전주시 덕진구 건지로 20","lat":"35.8474559","lng":"127.1397563","treat":"외래진료","callnum":"063-250-1114"},
{"no":"218","sido":"전북","name":"전주고려병원","address":"전라북도 전주시 덕진구 안덕원로 367","lat":"35.8398517","lng":"127.1670133","treat":"외래진료","callnum":"063-240-7300"},
{"no":"219","sido":"전북","name":"대자인병원","address":"전라북도 전주시 덕진구 견훤로390","lat":"35.8459483","lng":"127.1533777","treat":"외래진료","callnum":"063-240-2000"},
{"no":"220","sido":"전북","name":"호성전주병원","address":"전라북도 전주시 덕진구 동부대로 895","lat":"35.8654315","lng":"127.1478445","treat":"외래진료","callnum":"063-240-8800"},
{"no":"221","sido":"전북","name":"예수병원","address":"전라북도 전주시 완산구 서원로365","lat":"35.8143037","lng":"127.1331759","treat":"외래진료 및 입원","callnum":"063-230-8114"},
{"no":"222","sido":"전북","name":"전주병원","address":"전라북도 전주시 완산구 한두평3길13","lat":"35.8151261","lng":"127.1247791","treat":"외래진료","callnum":"063-220-7200"},
{"no":"223","sido":"전북","name":"전주다솔아동병원","address":"전라북도 전주시 완산구 우전로 250","lat":"35.8171678","lng":"127.1022042","treat":"외래진료","callnum":"063-280-0800"},
{"no":"224","sido":"전북","name":"미르아동병원","address":"전라북도 전주시 완산구 백제대로 100","lat":"35.8026064","lng":"127.1259454","treat":"외래진료","callnum":"063-229-0114"},
{"no":"225","sido":"전남","name":"고흥종합병원","address":"전라남도 고흥군 고흥읍 고흥로 1935","lat":"34.6210632","lng":"127.2939786","treat":"외래진료 및 입원","callnum":"061-835-6000"},
{"no":"226","sido":"전남","name":"녹동현대병원","address":"전라남도 고흥군 도양읍 차경구렁목길 215","lat":"34.5462469","lng":"127.1457073","treat":"외래진료 및 입원","callnum":"061-840-1200 "},
{"no":"227","sido":"전남","name":"엔에이치미래아동병원","address":"전라남도 나주시 중야2길29 4~6층 ","lat":"35.0171291","lng":"126.7846506","treat":"외래진료","callnum":"0507-1392-7701"},
{"no":"228","sido":"전남","name":"목포시의료원","address":"전라남도 목포시 이로로 18","lat":"34.8042536","lng":"126.4052979","treat":"외래진료","callnum":"061-260-6500"},
{"no":"229","sido":"전남","name":"목포한국병원","address":"전라남도 목포시 영산로 483","lat":"34.8089329","lng":"126.4164313","treat":"외래진료 및 입원","callnum":"061-270-5500"},
{"no":"230","sido":"전남","name":"목포기독병원","address":"전라남도 목포시 백년대로303","lat":"34.8044799","lng":"126.4205707","treat":"외래진료 및 입원","callnum":"061-280-7500"},
{"no":"231","sido":"전남","name":"목포중앙병원","address":"전라남도 목포시 영산로 623번지","lat":"34.8210423","lng":"126.4208995","treat":"외래진료 및 입원","callnum":"061-280-3000"},
{"no":"232","sido":"전남","name":"목포아동병원","address":"전라남도 목포시 옥암로 149","lat":"34.8116976","lng":"126.4231761","treat":"외래진료","callnum":"0507-1385-8015"},
{"no":"233","sido":"전남","name":"성가롤로병원","address":"전라남도 순천시 순광로 221","lat":"34.9643545","lng":"127.543036","treat":"외래진료 및 입원","callnum":"061-720-2000"},
{"no":"234","sido":"전남","name":"여천전남병원","address":"전라남도 여수시 무선로 95","lat":"34.7690473","lng":"127.6542568","treat":"외래진료","callnum":"061-690-6000"},
{"no":"235","sido":"전남","name":"여수전남병원","address":"전라남도 여수시 좌수영로49","lat":"34.744984","lng":"127.7279459","treat":"외래진료","callnum":"061-640-7575"},
{"no":"236","sido":"전남","name":"여수한국병원","address":"전라남도 여수시 여천체육공원길10","lat":"34.7610442","lng":"127.6746735","treat":"외래진료","callnum":"061-653-2000"},
{"no":"237","sido":"경북","name":"동국대학교 경주병원","address":"경상북도 경주시 동대로87","lat":"35.8583079","lng":"129.1952659","treat":"외래진료","callnum":"054-748-9300"},
{"no":"238","sido":"경북","name":"차의과학대학교부속구미차병원","address":"경상북도 구미시 신시로10길 12","lat":"36.114578","lng":"128.340549","treat":"외래진료","callnum":"054-450-9700"},
{"no":"239","sido":"경북","name":"순천향대학교부속구미병원","address":"경상북도 구미시 1공단로 179","lat":"36.1031486","lng":"128.3827259","treat":"외래진료 및 입원","callnum":"054-468-9114"},
{"no":"240","sido":"경북","name":"김천제일병원","address":"경상북도 김천시 신음1길 12","lat":"36.1354534","lng":"128.1188209","treat":"외래진료","callnum":"054-420-9300"},
{"no":"241","sido":"경북","name":"문경제일병원","address":"경상북도 문경시 당교3길 25","lat":"36.5842614","lng":"128.188823","treat":"외래진료","callnum":"054-550-7700"},
{"no":"242","sido":"경북","name":"상주적십자병원","address":"경상북도 상주시 상서문로 53","lat":"36.4146699","lng":"128.1555287","treat":"외래진료","callnum":"054-534-3501"},
{"no":"243","sido":"경북","name":"상주성모병원","address":"경상북도 상주시 냉림서성길7","lat":"36.4205582","lng":"128.1599564","treat":"외래진료","callnum":"054-532-5001"},
{"no":"244","sido":"경북","name":"안동성소병원","address":"경상북도 안동시 서동문로99","lat":"36.5675843","lng":"128.7227782","treat":"외래진료","callnum":"054-850-8114"},
{"no":"245","sido":"경북","name":"안동병원","address":"경상북도 안동시 앙실로11","lat":"36.5466703","lng":"128.7011385","treat":"외래진료","callnum":"054-840-1004"},
{"no":"246","sido":"경북","name":"영주적십자병원","address":"경상북도 영주시 대학로 327","lat":"36.8252562","lng":"128.6040069","treat":"외래진료","callnum":"054-630-0100"},
{"no":"247","sido":"경북","name":"포항세명기독병원","address":"경상북도 포항시 남구 남구 포스코대로351","lat":"36.0086482","lng":"129.3593452","treat":"외래진료 및 입원","callnum":"054-275-0005"},
{"no":"248","sido":"경북","name":"좋은선린병원","address":"경상북도 포항시 북구 대신로 43","lat":"36.0480605","lng":"129.3671362","treat":"외래진료","callnum":"054-245-5000"},
{"no":"249","sido":"경남","name":"거붕백병원","address":"경상남도 거제시 계룡로 5길 14","lat":"34.8731916","lng":"128.6264299","treat":"외래진료","callnum":"055-733-0000"},
{"no":"250","sido":"경남","name":"대우병원","address":"경상남도 거제시 도모길16","lat":"34.871976","lng":"128.722186","treat":"외래진료","callnum":"055-680-8114"},
{"no":"251","sido":"경남","name":"맑은샘병원","address":"경상남도 거제시 연초면 거제대로 4477","lat":"34.8977386","lng":"128.6436302","treat":"외래진료","callnum":"055-736-1004"},
{"no":"252","sido":"경남","name":"거제아동병원","address":"경상남도 거제시 동문천로 52","lat":"34.8828292","lng":"128.6262405","treat":"외래진료","callnum":"055-632-8225"},
{"no":"253","sido":"경남","name":"서울아동병원","address":"경상남도 거제시 서문로5길 6","lat":"34.8892203","lng":"128.6210157","treat":"외래진료","callnum":"055-633-7599"},
{"no":"254","sido":"경남","name":"대우아동병원","address":"경상남도 거제시 옥포대첩로 38 유라빌딩 2346층","lat":"34.8935347","lng":"128.6918029","treat":"외래진료","callnum":"055-687-8595"},
{"no":"255","sido":"경남","name":"아이사랑병원","address":"경상남도 김해시 활천로 22 (삼정동)","lat":"35.2294809","lng":"128.893989","treat":"외래진료","callnum":"055-325-5775"},
{"no":"256","sido":"경남","name":"진영새싹병원","address":"경상남도 김해시 본산로 15-17 굿프라이시티 301호 304호","lat":"35.306682","lng":"128.7365926","treat":"외래진료","callnum":"055-724-3119"},
{"no":"257","sido":"경남","name":"사천서울아동병원","address":"경상남도 사천시 사천읍 선평길 17","lat":"35.0801518","lng":"128.091424","treat":"외래진료","callnum":"055-852-8175"},
{"no":"258","sido":"경남","name":"양산부산대학교병원","address":"경상남도 양산시 양산시 물금읍 금오로 20","lat":"35.3274903","lng":"129.0061654","treat":"외래진료 및 입원","callnum":"055-1577-7512"},
{"no":"259","sido":"경남","name":"진주고려병원","address":"경상남도 진주시 동진로2","lat":"35.1784898","lng":"128.09205","treat":"외래진료","callnum":"055-751-2500"},
{"no":"260","sido":"경남","name":"경상대학교병원","address":"경상남도 진주시 강남로 79","lat":"35.1760266","lng":"128.0950115","treat":"외래진료 및 입원","callnum":"055-750-8000"},
{"no":"261","sido":"경남","name":"진주제일병원","address":"경상남도 진주시 진주대로 885","lat":"35.1794286","lng":"128.0902614","treat":"외래진료","callnum":"055-750-7123"},
{"no":"262","sido":"경남","name":"한일병원","address":"경상남도 진주시 범골로 17","lat":"35.1669632","lng":"128.1285486","treat":"외래진료","callnum":"055-759-7777"},
{"no":"263","sido":"경남","name":"에스엠지연세병원","address":"경상남도 창원시 마산합포구 3.15대로 76","lat":"35.1862912","lng":"128.5616035","treat":"외래진료 및 입원","callnum":"055-243-0100"},
{"no":"264","sido":"경남","name":"청아병원","address":"경상남도 창원시 마산회원구 내서읍 광려천서로 67","lat":"35.2479258","lng":"128.5096026","treat":"외래진료","callnum":"055-230-1500"},
{"no":"265","sido":"경남","name":"양덕서울아동병원","address":"경상남도 창원시 마산회원구 양덕로 190 바른몸빌딩 456층","lat":"35.2342751","lng":"128.5804133","treat":"외래진료","callnum":"055-299-8275"},
{"no":"266","sido":"경남","name":"한마음창원병원","address":"경상남도 창원시 성산구 원이대로682번길 21","lat":"35.2209991","lng":"128.6868481","treat":"외래진료","callnum":"055-267-2000"},
{"no":"267","sido":"경남","name":"CN외래진료서울아동병원","address":"경상남도 창원시 성산구 마디미서로 54","lat":"35.2208344","lng":"128.6808821","treat":"외래진료","callnum":"055-262-8511"},
{"no":"268","sido":"경남","name":"창원경상대학교병원","address":"경상남도 창원시 성산구 삼정자로 11","lat":"35.1991416","lng":"128.7069033","treat":"외래진료","callnum":"055-214-1000"},
{"no":"269","sido":"경남","name":"연세에스병원","address":"경상남도 창원시 진해구 해원로32번길 13","lat":"35.1546427","lng":"128.6984621","treat":"외래진료","callnum":"055-548-7700"},
{"no":"270","sido":"제주","name":"제주한라병원","address":"제주특별자치도 제주시 도령로 65","lat":"33.4899071","lng":"126.4850306","treat":"외래진료 및 입원","callnum":"064-740-5000"},
{"no":"271","sido":"제주","name":"제주대학교병원","address":"제주특별자치도 제주시 아란13길 15","lat":"33.4671431","lng":"126.5452795","treat":"외래진료 및 입원","callnum":"064-717-1114"},
{"no":"272","sido":"제주","name":"한마음병원","address":"제주특별자치도 제주시 연신로 52","lat":"33.4962756","lng":"126.5462667","treat":"외래진료","callnum":"064-750-9000"},
{"no":"273","sido":"제주","name":"중앙병원","address":"제주특별자치도 제주시 월랑로 91","lat":"33.4922812","lng":"126.4705922","treat":"외래진료","callnum":"064-786-7000"}
]

