[
{"no":"1","sido":"서울","name":"하나이비인후과병원","address":"서울특별시 강남구 역삼로245","lng":"127.0429919","lat":"37.4979092","callnum":"02-6925-1111","monday":"09:00 ~ 18:00","tuesday":"09:00 ~ 18:00","wednesday":"09:00 ~ 18:00","thursday":"09:00 ~ 18:00","friday":"09:00 ~ 18:00","saturday":"09:00 ~ 13:00","sunday":"미운영","sample":"○"},
{"no":"2","sido":"서울","name":"민이비인후과의원","address":"서울특별시 강남구 테헤란로26길 10 성보빌딩 2층 (역삼동)","lng":"127.0358561","lat":"37.4996443","callnum":"02-501-2250","monday":"08:30 ~ 18:30","tuesday":"08:30 ~ 18:30","wednesday":"08:30 ~ 18:30","thursday":"08:30 ~ 18:30","friday":"08:30 ~ 18:30","saturday":"미운영","sunday":"미운영","sample":"○"},
{"no":"3","sido":"서울","name":"선릉다나아이비인후과의원","address":"서울특별시 강남구 테헤란로 310 두꺼비빌딩 3층 (역삼동)","lng":"127.0447722","lat":"37.5028614","callnum":"02-545-7799","monday":"09:00 ~ 21:00","tuesday":"09:00 ~ 21:00","wednesday":"09:00 ~ 21:00","thursday":"09:00 ~ 21:00","friday":"09:00 ~ 21:00","saturday":"10:00 ~ 19:00","sunday":"10:00 ~ 17:00","sample":"○"},
{"no":"4","sido":"서울","name":"강동성심병원","address":"서울특별시 강동구 성안로 150 (길동)","lng":"127.135334","lat":"37.5359699","callnum":"02-2224-2114","monday":"08:30 ~ 16:30","tuesday":"08:30 ~ 16:30","wednesday":"08:30 ~ 16:30","thursday":"08:30 ~ 16:30","friday":"08:30 ~ 16:30","saturday":"08:30 ~ 11:30","sunday":"미운영","sample":"○"},
{"no":"5","sido":"서울","name":"강동구보건소","address":"서울특별시 강동구 성내로 45 강동구보건소 호흡기전담클리닉 (성내동)","lng":"127.125578","lat":"37.5293925","callnum":"02-3425-6809","monday":"09:00 ~ 15:00","tuesday":"09:00 ~ 15:00","wednesday":"09:00 ~ 15:00","thursday":"09:00 ~ 15:00","friday":"09:00 ~ 15:00","saturday":"미운영","sunday":"미운영","sample":"○"},
{"no":"6","sido":"서울","name":"강북구보건소","address":"서울특별시 강북구 한천로 897 강북구보건소 (번동)","lng":"127.0388033","lat":"37.6321393","callnum":"02-901-7653","monday":"미운영","tuesday":"09:00 ~ 12:00","wednesday":"미운영","thursday":"09:00 ~ 12:00","friday":"미운영","saturday":"미운영","sunday":"미운영","sample":"○"},
{"no":"7","sido":"서울","name":"강북구 삼각산분소","address":"서울특별시 강북구 삼양로19길 154 삼각산분소 1층 호흡기전담클리닉 (미아동)","lng":"127.0156193","lat":"37.616973","callnum":"02-901-4818","monday":"09:00 ~ 18:00","tuesday":"09:00 ~ 18:00","wednesday":"09:00 ~ 18:00","thursday":"09:00 ~ 18:00","friday":"09:00 ~ 18:00","saturday":"미운영","sunday":"미운영","sample":"○"},
{"no":"8","sido":"서울","name":"부민병원","address":"서울특별시 강서구 공항대로 389 부민병원 (등촌동)","lng":"126.8509186","lat":"37.5568545","callnum":"1577-7582","monday":"09:00 ~ 16:00","tuesday":"09:00 ~ 16:00","wednesday":"09:00 ~ 16:00","thursday":"09:00 ~ 16:00","friday":"09:00 ~ 16:00","saturday":"09:00 ~ 12:00","sunday":"미운영","sample":"○"},
{"no":"9","sido":"서울","name":"에이치플러스 양지병원","address":"서울특별시 관악구 남부순환로 1636","lng":"126.9325731","lat":"37.4841322","callnum":"02-1877-8875","monday":"08:30 ~ 17:30","tuesday":"08:30 ~ 17:30","wednesday":"08:30 ~ 17:30","thursday":"08:30 ~ 17:30","friday":"08:30 ~ 17:30","saturday":"08:30 ~ 12:30","sunday":"미운영","sample":"○"},
{"no":"10","sido":"서울","name":"혜민병원","address":"서울특별시 광진구 자양로 85 (자양동)","lng":"127.0834859","lat":"37.5352635","callnum":"02-2049-9036","monday":"09:00 ~ 17:00","tuesday":"09:00 ~ 17:00","wednesday":"09:00 ~ 17:00","thursday":"09:00 ~ 17:00","friday":"09:00 ~ 17:00","saturday":"미운영","sunday":"미운영","sample":"○"},
{"no":"11","sido":"서울","name":"광진구보건소","address":"서울특별시 광진구 자양로 117 호흡기전담클리닉 (자양동)","lng":"127.0827719","lat":"37.5381323","callnum":"02-450-1576","monday":"미운영","tuesday":"09:00 ~ 12:00","wednesday":"미운영","thursday":"09:00 ~ 12:00","friday":"미운영","saturday":"미운영","sunday":"미운영","sample":"○"},
{"no":"12","sido":"서울","name":"성북우리아이들병원","address":"서울특별시 성북구 동소문로46길 10","lng":"127.0293547","lat":"37.6068601","callnum":"02-912-0100","monday":"09:00 ~ 22:00","tuesday":"09:00 ~ 22:00","wednesday":"09:00 ~ 22:00","thursday":"09:00 ~ 22:00","friday":"09:00 ~ 22:00","saturday":"09:00 ~ 17:00","sunday":"09:00 ~ 17:00","sample":"X"},
{"no":"13","sido":"서울","name":"우리아이들병원","address":"서울특별시 구로구 새말로 15","lng":"126.8824413","lat":"37.5021129","callnum":"02-858-0100","monday":"09:00 ~ 22:00","tuesday":"09:00 ~ 22:00","wednesday":"09:00 ~ 22:00","thursday":"09:00 ~ 22:00","friday":"09:00 ~ 22:00","saturday":"09:00 ~ 17:00","sunday":"09:00 ~ 17:00","sample":"X"},
{"no":"14","sido":"서울","name":"구로성심병원","address":"서울특별시 구로구 경인로 427","lng":"126.8663524","lat":"37.4995538","callnum":"02-2067-1500","monday":"09:00 ~ 17:30","tuesday":"09:00 ~ 17:30","wednesday":"09:00 ~ 17:30","thursday":"09:00 ~ 17:30","friday":"09:00 ~ 17:30","saturday":"09:00 ~ 12:30","sunday":"미운영","sample":"○"},
{"no":"15","sido":"서울","name":"금천구보건소","address":"서울특별시 금천구 시흥대로73길 70 금천구보건소 (시흥동)","lng":"126.8954342","lat":"37.4569307","callnum":"02-2627-2683","monday":"09:00 ~ 12:00","tuesday":"미운영","wednesday":"09:00 ~ 12:00","thursday":"미운영","friday":"09:00 ~ 12:00","saturday":"미운영","sunday":"미운영","sample":"○"},
{"no":"16","sido":"서울","name":"노원을지대학교병원","address":"서울특별시 노원구 한글비석로 68","lng":"127.0699513","lat":"37.6364346","callnum":"02-970-8000","monday":"09:00 ~ 17:00","tuesday":"09:00 ~ 17:00","wednesday":"09:00 ~ 17:00","thursday":"09:00 ~ 17:00","friday":"09:00 ~ 17:00","saturday":"미운영","sunday":"미운영","sample":"○"},
{"no":"17","sido":"서울","name":"원자력병원","address":"서울특별시 노원구 노원로 75","lng":"127.0826413","lat":"37.6290554","callnum":"02-970-2114","monday":"13:30 ~ 16:30","tuesday":"13:30 ~ 16:30","wednesday":"13:30 ~ 16:30","thursday":"13:30 ~ 16:30","friday":"13:30 ~ 16:30","saturday":"미운영","sunday":"미운영","sample":"○"},
{"no":"18","sido":"서울","name":"인제대학교 상계백병원","address":"서울특별시 노원구 동일로 1342 상계백병원 (상계동)","lng":"127.0631253","lat":"37.6485805","callnum":"02-950-1114","monday":"09:00 ~ 16:00","tuesday":"09:00 ~ 16:00","wednesday":"09:00 ~ 16:00","thursday":"09:00 ~ 16:00","friday":"09:00 ~ 16:00","saturday":"미운영","sunday":"미운영","sample":"○"},
{"no":"19","sido":"서울","name":"성동군자의원","address":"서울특별시 성동구 광나루로 323 2층","lng":"127.0656592","lat":"37.5484233","callnum":"02-499-7785","monday":"09:00 ~ 18:00","tuesday":"09:00 ~ 18:00","wednesday":"09:00 ~ 18:00","thursday":"09:00 ~ 18:00","friday":"09:00 ~ 18:00","saturday":"09:00 ~ 13:00","sunday":"미운영","sample":"○"},
{"no":"20","sido":"서울","name":"창동제일의원","address":"서울특별시 도봉구 노해로65길 17-13 2층 (창동 검진센터)","lng":"127.0454842","lat":"37.6518991","callnum":"02-900-5011","monday":"09:00 ~ 13:00","tuesday":"09:00 ~ 13:00","wednesday":"09:00 ~ 13:00","thursday":"09:00 ~ 13:00","friday":"09:00 ~ 13:00","saturday":"미운영","sunday":"미운영","sample":"○"},
{"no":"21","sido":"서울","name":"한일병원","address":"서울특별시 도봉구 우이천로 308 (쌍문동)","lng":"127.0285858","lat":"37.6459315","callnum":"02-901-3114","monday":"09:00 ~ 17:00","tuesday":"09:00 ~ 17:00","wednesday":"09:00 ~ 17:00","thursday":"09:00 ~ 17:00","friday":"09:00 ~ 17:00","saturday":"미운영","sunday":"미운영","sample":"○"},
{"no":"22","sido":"서울","name":"삼육서울병원","address":"서울특별시 동대문구 망우로 82","lng":"127.0642348","lat":"37.5881119","callnum":"02-2244-0191","monday":"08:00 ~ 17:00","tuesday":"08:00 ~ 17:00","wednesday":"08:00 ~ 17:00","thursday":"08:00 ~ 17:00","friday":"08:00 ~ 12:00","saturday":"미운영","sunday":"08:00 ~ 17:00","sample":"○"},
{"no":"23","sido":"서울","name":"서울성심병원","address":"서울특별시 동대문구 왕산로 259","lng":"127.0498254","lat":"37.5841854","callnum":"02-966-1616","monday":"09:00 ~ 16:30","tuesday":"09:00 ~ 16:30","wednesday":"09:00 ~ 16:30","thursday":"09:00 ~ 16:30","friday":"09:00 ~ 16:30","saturday":"09:00 ~ 12:30","sunday":"미운영","sample":"○"},
{"no":"24","sido":"서울","name":"동작구보건소","address":"서울특별시 동작구 장승배기로10길 42 동작구보건소 (상도동)","lng":"126.9410949","lat":"37.5044193","callnum":"02-820-1937","monday":"09:00 ~ 13:00","tuesday":"09:00 ~ 13:00","wednesday":"09:00 ~ 13:00","thursday":"09:00 ~ 13:00","friday":"09:00 ~ 13:00","saturday":"미운영","sunday":"미운영","sample":"○"},
{"no":"25","sido":"서울","name":"서울특별시 보라매병원","address":"서울특별시 동작구 보라매로5길 20 (신대방동)","lng":"126.9243576","lat":"37.4932664","callnum":"02-870-2114","monday":"09:00 ~ 17:00","tuesday":"09:00 ~ 17:00","wednesday":"09:00 ~ 17:00","thursday":"09:00 ~ 17:00","friday":"09:00 ~ 17:00","saturday":"09:00 ~ 12:00","sunday":"미운영","sample":"○"},
{"no":"26","sido":"서울","name":"동신병원","address":"서울특별시 서대문구 연희로 272 동신병원 본관동 (홍은동)","lng":"126.9364744","lat":"37.5813083","callnum":"02-396-9161","monday":"09:00 ~ 17:00","tuesday":"09:00 ~ 17:00","wednesday":"09:00 ~ 17:00","thursday":"09:00 ~ 17:00","friday":"09:00 ~ 17:00","saturday":"09:00 ~ 12:00","sunday":"미운영","sample":"X"},
{"no":"27","sido":"서울","name":"서초구보건소","address":"서울특별시 서초구 남부순환로 2584 서초구보건소 (서초동)","lng":"127.0328289","lat":"37.4835718","callnum":"02-2155-8095","monday":"09:00 ~ 18:00","tuesday":"09:00 ~ 18:00","wednesday":"09:00 ~ 18:00","thursday":"09:00 ~ 18:00","friday":"09:00 ~ 18:00","saturday":"09:00 ~ 17:00","sunday":"09:00 ~ 17:00","sample":"○"},
{"no":"28","sido":"서울","name":"한솔병원","address":"서울특별시 송파구 송파대로 445","lng":"127.1058985","lat":"37.506061","callnum":"02-2147-6000","monday":"14:00 ~ 17:00","tuesday":"14:00 ~ 17:00","wednesday":"14:00 ~ 17:00","thursday":"14:00 ~ 17:00","friday":"14:00 ~ 17:00","saturday":"14:00 ~ 15:00","sunday":"미운영","sample":"X"},
{"no":"29","sido":"서울","name":"경찰병원","address":"서울특별시 송파구 송이로 123 국립경찰병원 (가락동)","lng":"127.1233604","lat":"37.4965146","callnum":"02-3400-1114","monday":"09:30 ~ 16:30","tuesday":"09:30 ~ 16:30","wednesday":"09:30 ~ 16:30","thursday":"09:30 ~ 16:30","friday":"09:30 ~ 16:30","saturday":"미운영","sunday":"미운영","sample":"○"},
{"no":"30","sido":"서울","name":"메디힐병원","address":"서울특별시 양천구 남부순환로 331","lng":"126.8278542","lat":"37.5372467","callnum":"02-2604-7551","monday":"09:00 ~ 17:00","tuesday":"09:00 ~ 17:00","wednesday":"09:00 ~ 17:00","thursday":"09:00 ~ 17:00","friday":"09:00 ~ 17:00","saturday":"09:00 ~ 13:00","sunday":"미운영","sample":"○"},
{"no":"31","sido":"서울","name":"홍익병원","address":"서울특별시 양천구 목동로 225 홍익병원본관 (신정동)","lng":"126.8636632","lat":"37.5284873","callnum":"02-2693-5555","monday":"09:00 ~ 17:00","tuesday":"09:00 ~ 17:00","wednesday":"09:00 ~ 17:00","thursday":"09:00 ~ 17:00","friday":"09:00 ~ 17:00","saturday":"09:00 ~ 13:00","sunday":"미운영","sample":"○"},
{"no":"32","sido":"서울","name":"성애병원","address":"서울특별시 영등포구 여의대방로53길 22 (신길동 성애병원)","lng":"126.9222777","lat":"37.5120882","callnum":"02-840-7114","monday":"09:00 ~ 17:00","tuesday":"09:00 ~ 17:00","wednesday":"09:00 ~ 17:00","thursday":"09:00 ~ 17:00","friday":"09:00 ~ 17:00","saturday":"미운영","sunday":"미운영","sample":"○"},
{"no":"33","sido":"서울","name":"영등포병원","address":"서울특별시 영등포구 당산로31길 10 (당산동3가)","lng":"126.8957275","lat":"37.5268632","callnum":"02-2635-2809","monday":"08:30 ~ 17:30","tuesday":"08:30 ~ 17:30","wednesday":"08:30 ~ 17:30","thursday":"08:30 ~ 17:30","friday":"08:30 ~ 17:30","saturday":"08:30 ~ 12:30","sunday":"미운영","sample":"○"},
{"no":"34","sido":"서울","name":"청구성심병원","address":"서울특별시 은평구 통일로 873 (갈현동)","lng":"126.9194747","lat":"37.6208622","callnum":"02-350-3300","monday":"09:30 ~ 17:00","tuesday":"09:30 ~ 17:00","wednesday":"09:30 ~ 17:00","thursday":"09:30 ~ 17:00","friday":"09:30 ~ 17:00","saturday":"09:30 ~ 12:00","sunday":"미운영","sample":"○"},
{"no":"35","sido":"서울","name":"서울특별시서북병원","address":"서울특별시 은평구 갈현로7길 49 (역촌동)","lng":"126.9045187","lat":"37.6041094","callnum":"02-3156-3000","monday":"09:00 ~ 18:00","tuesday":"09:00 ~ 18:00","wednesday":"09:00 ~ 18:00","thursday":"09:00 ~ 18:00","friday":"09:00 ~ 18:00","saturday":"미운영","sunday":"미운영","sample":"○"},
{"no":"36","sido":"서울","name":"서울적십자병원","address":"서울특별시 종로구 새문안로 9 적십자병원 (평동)","lng":"126.9672099","lat":"37.5675972","callnum":"02-2002-8000","monday":"09:00 ~ 17:00","tuesday":"09:00 ~ 17:00","wednesday":"09:00 ~ 17:00","thursday":"09:00 ~ 17:00","friday":"09:00 ~ 17:00","saturday":"미운영","sunday":"미운영","sample":"○"},
{"no":"37","sido":"서울","name":"세란병원","address":"서울특별시 종로구 통일로 256 (무악동)","lng":"126.957538","lat":"37.5752521","callnum":"02-737-0181","monday":"09:00 ~ 18:00","tuesday":"09:00 ~ 18:00","wednesday":"09:00 ~ 18:00","thursday":"09:00 ~ 18:00","friday":"09:00 ~ 18:00","saturday":"미운영","sunday":"미운영","sample":"○"},
{"no":"38","sido":"서울","name":"종로연세이비인후과의원","address":"서울특별시 종로구 삼봉로 57 호수빌딩 3층(수송동)","lng":"126.9804657","lat":"37.572542","callnum":"02-6954-0903","monday":"09:00 ~ 20:00","tuesday":"09:00 ~ 20:00","wednesday":"09:00 ~ 20:00","thursday":"09:00 ~ 20:00","friday":"09:00 ~ 20:00","saturday":"미운영","sunday":"09:00 ~ 17:00","sample":"○"},
{"no":"39","sido":"서울","name":"인제대학교 서울백병원","address":"서울특별시 중구 마른내로 9-9 (저동2가)","lng":"126.9887525","lat":"37.56509668","callnum":"02-2270-0114","monday":"08:30 ~ 17:00","tuesday":"08:30 ~ 17:00","wednesday":"08:30 ~ 17:00","thursday":"08:30 ~ 17:00","friday":"08:30 ~ 17:00","saturday":"미운영","sunday":"미운영","sample":"○"},
{"no":"40","sido":"서울","name":"국립중앙의료원","address":"서울특별시 중구 을지로 245 (을지로6가)","lng":"127.0059251","lat":"37.567452","callnum":"02-2260-7114","monday":"08:30 ~ 17:00","tuesday":"08:30 ~ 17:00","wednesday":"08:30 ~ 17:00","thursday":"08:30 ~ 17:00","friday":"08:30 ~ 17:00","saturday":"미운영","sunday":"미운영","sample":"○"},
{"no":"41","sido":"서울","name":"녹색병원","address":"서울특별시 중랑구 사가정로49길 53 (면목동)","lng":"127.0860529","lat":"37.5835704","callnum":"02-490-2000","monday":"08:30 ~ 17:30","tuesday":"08:30 ~ 17:30","wednesday":"08:30 ~ 17:30","thursday":"08:30 ~ 17:30","friday":"08:30 ~ 17:30","saturday":"08:30 ~ 12:30","sunday":"미운영","sample":"○"},
{"no":"42","sido":"서울","name":"동부제일병원","address":"서울특별시 중랑구 망우로 511 (망우동 동부제일병원)","lng":"127.1090366","lat":"37.6006947","callnum":"02-437-5011","monday":"09:00 ~ 17:00","tuesday":"09:00 ~ 17:00","wednesday":"09:00 ~ 17:00","thursday":"09:00 ~ 17:00","friday":"09:00 ~ 17:00","saturday":"미운영","sunday":"미운영","sample":"○"},
{"no":"43","sido":"서울","name":"서울의료원","address":"서울특별시 중랑구 신내로 156 (신내동)","lng":"127.0986633","lat":"37.6128791","callnum":"02-2276-7000","monday":"09:00 ~ 17:00","tuesday":"09:00 ~ 17:00","wednesday":"09:00 ~ 17:00","thursday":"09:00 ~ 17:00","friday":"09:00 ~ 17:00","saturday":"미운영","sunday":"미운영","sample":"○"},
{"no":"44","sido":"서울","name":"장스소아청소년과의원","address":"서울특별시 중랑구 망우로 411 장스빌딩 에이동 1층4층 일부층 (망우동)","lng":"127.0978949","lat":"37.5996009","callnum":"02-490-4131","monday":"09:00 ~ 21:00","tuesday":"09:00 ~ 21:00","wednesday":"09:00 ~ 21:00","thursday":"09:00 ~ 21:00","friday":"09:00 ~ 21:00","saturday":"09:00 ~ 18:00","sunday":"09:00 ~ 18:00","sample":"X"},
{"no":"45","sido":"서울","name":"중랑구보건소","address":"서울특별시 중랑구 봉화산로 179 중랑구보건소 (신내동)","lng":"127.0929977","lat":"37.6065374","callnum":"02-2094-0880","monday":"미운영","tuesday":"13:00 ~ 14:00","wednesday":"미운영","thursday":"13:00 ~ 14:00","friday":"미운영","saturday":"미운영","sunday":"미운영","sample":"○"},
{"no":"46","sido":"부산","name":"기장병원","address":"부산광역시 기장군 기장읍 대청로72번길 6 6","lng":"129.2163304","lat":"35.2358649","callnum":"051-723-0171","monday":"09:00 ~ 18:00","tuesday":"09:00 ~ 17:00","wednesday":"09:00 ~ 17:00","thursday":"09:00 ~ 17:00","friday":"09:00 ~ 17:00","saturday":"09:00 ~ 13:00","sunday":"미운영","sample":"○"},
{"no":"47","sido":"부산","name":"정관우리아동병원","address":"부산광역시 기장군 정관면 정관중앙로 56","lng":"129.1795638","lat":"35.3217857","callnum":"051-727-7812","monday":"09:00 ~ 23:00","tuesday":"09:00 ~ 23:00","wednesday":"09:00 ~ 23:00","thursday":"09:00 ~ 23:00","friday":"09:00 ~ 23:00","saturday":"09:00 ~ 18:00","sunday":"09:00 ~ 18:00","sample":"○"},
{"no":"48","sido":"부산","name":"갑을녹산병원","address":"부산광역시 강서구 녹산산단321로 24-8 (송정동)","lng":"128.8533291","lat":"35.0905433","callnum":"051-974-8300","monday":"09:00 ~ 18:00","tuesday":"09:00 ~ 18:00","wednesday":"09:00 ~ 18:00","thursday":"09:00 ~ 18:00","friday":"09:00 ~ 18:00","saturday":"09:00 ~ 13:00","sunday":"미운영","sample":"○"},
{"no":"49","sido":"부산","name":"행복한어린이병원","address":"부산광역시 강서구 명지국제1로 25 우진메디컬프라 8~10층 (명지동)","lng":"128.9033465","lat":"35.0912897","callnum":"051-264-9500","monday":"09:00 ~ 19:00","tuesday":"09:00 ~ 19:00","wednesday":"09:00 ~ 19:00","thursday":"09:00 ~ 19:00","friday":"09:00 ~ 19:00","saturday":"09:00 ~ 16:00","sunday":"09:00 ~ 13:00","sample":"X"},
{"no":"50","sido":"부산","name":"명지아동병원","address":"부산광역시 강서구 명지국제8로 240 402501601호 (명지동 국제메디칼빌딩)","lng":"128.9189162","lat":"35.0978251","callnum":"051-717-0230","monday":"09:00 ~ 20:00","tuesday":"09:00 ~ 20:00","wednesday":"09:00 ~ 20:00","thursday":"09:00 ~ 20:00","friday":"09:00 ~ 20:00","saturday":"09:00 ~ 17:00","sunday":"09:00 ~ 17:00","sample":"X"},
{"no":"51","sido":"부산","name":"금정소아청소년과의원","address":"부산광역시 금정구 금정로 244 1층 (구서동)","lng":"129.0921791","lat":"35.2451252","callnum":"051-967-5222","monday":"09:00 ~ 19:00","tuesday":"09:00 ~ 19:00","wednesday":"09:00 ~ 19:00","thursday":"09:00 ~ 19:00","friday":"09:00 ~ 19:00","saturday":"09:00 ~ 13:00","sunday":"09:00 ~ 13:00","sample":"○"},
{"no":"52","sido":"부산","name":"부산광역시남구보건소","address":"부산광역시 나무 못골로 23","lng":"129.0849925","lat":"35.1361106","callnum":"051-607-3376","monday":"09:00 ~ 17:00","tuesday":"09:00 ~ 17:00","wednesday":"09:00 ~ 17:00","thursday":"09:00 ~ 17:00","friday":"09:00 ~ 17:00","saturday":"미운영","sunday":"미운영","sample":"○"},
{"no":"53","sido":"부산","name":"부산아동병원","address":"부산광역시 남구 수영로 228 3-7층 (대연동)","lng":"129.0914611","lat":"35.1348209","callnum":"051-612-7582","monday":"09:30 ~ 18:00","tuesday":"09:30 ~ 18:00","wednesday":"09:30 ~ 18:00","thursday":"09:30 ~ 18:00","friday":"09:30 ~ 18:00","saturday":"09:30 ~ 13:00","sunday":"미운영","sample":"○"},
{"no":"54","sido":"부산","name":"부산성모병원","address":"부산광역시 남구 용호로232번길 25-14 (용호동)","lng":"129.1091924","lat":"35.1105027","callnum":"051-933-7114","monday":"08:30 ~ 17:30","tuesday":"08:30 ~ 17:30","wednesday":"08:30 ~ 17:30","thursday":"08:30 ~ 17:30","friday":"08:30 ~ 17:30","saturday":"미운영","sunday":"미운영","sample":"○"},
{"no":"55","sido":"부산","name":"김원묵기념봉생병원","address":"부산광역시 동구 중앙대로 401 (좌천동 봉생병원)","lng":"129.050439","lat":"35.1309108","callnum":"051-664-4000","monday":"09:00 ~ 17:00","tuesday":"09:00 ~ 17:00","wednesday":"09:00 ~ 17:00","thursday":"09:00 ~ 17:00","friday":"09:00 ~ 17:00","saturday":"09:00 ~ 12:00","sunday":"미운영","sample":"○"},
{"no":"56","sido":"부산","name":"좋은문화병원","address":"부산광역시 동구 범일로 119 (범일동)","lng":"129.0589711","lat":"35.1407519","callnum":"051-644-2002","monday":"09:00 ~ 18:00","tuesday":"09:00 ~ 17:00","wednesday":"09:00 ~ 17:00","thursday":"09:00 ~ 17:00","friday":"09:00 ~ 17:00","saturday":"09:00 ~ 13:00","sunday":"미운영","sample":"○"},
{"no":"57","sido":"부산","name":"일신기독병원","address":"부산광역시 동구 정공단로 27 (좌천동)","lng":"129.0541167","lat":"35.1353227","callnum":"051-630-0300","monday":"09:00 ~ 17:00","tuesday":"09:00 ~ 17:00","wednesday":"09:00 ~ 17:00","thursday":"09:00 ~ 17:00","friday":"09:00 ~ 17:00","saturday":"09:00 ~ 12:00","sunday":"미운영","sample":"○"},
{"no":"58","sido":"부산","name":"대동병원","address":"부산광역시 동래구 충렬대로 187","lng":"129.0801767","lat":"35.2042023","callnum":"051-554-1233","monday":"08:30 ~ 17:30","tuesday":"08:30 ~ 17:30","wednesday":"08:30 ~ 17:30","thursday":"08:30 ~ 17:30","friday":"08:30 ~ 17:30","saturday":"08:30 ~ 12:30","sunday":"미운영","sample":"○"},
{"no":"59","sido":"부산","name":"광혜병원","address":"부산광역시 동래구 충렬대로 96","lng":"129.0711728","lat":"35.2068062","callnum":"051-503-2111","monday":"09:30 ~ 16:30","tuesday":"09:30 ~ 16:30","wednesday":"09:30 ~ 16:30","thursday":"09:30 ~ 16:30","friday":"09:30 ~ 16:30","saturday":"09:30 ~ 12:00","sunday":"미운영","sample":"○"},
{"no":"60","sido":"부산","name":"동래봉생병원","address":"부산광역시 동래구 안연로109번길 27 (안락동)","lng":"129.0961123","lat":"35.1969022","callnum":"051-531-6000","monday":"09:00 ~ 16:30","tuesday":"09:00 ~ 16:30","wednesday":"09:00 ~ 16:30","thursday":"09:00 ~ 16:30","friday":"09:00 ~ 16:30","saturday":"미운영","sunday":"미운영","sample":"○"},
{"no":"61","sido":"부산","name":"좋은삼선병원","address":"부산광역시 사상구 가야대로 326 (주례동)","lng":"129.0079077","lat":"35.1502463","callnum":"051-322-0900","monday":"09:00 ~ 16:00","tuesday":"09:00 ~ 16:00","wednesday":"09:00 ~ 16:00","thursday":"09:00 ~ 16:00","friday":"09:00 ~ 16:00","saturday":"09:00 ~ 12:00","sunday":"미운영","sample":"○"},
{"no":"62","sido":"부산","name":"부산맘아동병원","address":"부산광역시 사하구 낙동대로 451 금동빌딩 245-8층 (하단동)","lng":"128.9690039","lat":"35.105025","callnum":"051-271-8275","monday":"09:00 ~ 18:00","tuesday":"09:00 ~ 18:00","wednesday":"09:00 ~ 18:00","thursday":"09:00 ~ 18:00","friday":"09:00 ~ 18:00","saturday":"09:00 ~ 13:00","sunday":"미운영","sample":"X"},
{"no":"63","sido":"부산","name":"괴정어린이병원","address":"부산광역시 사하구 사하로 188 (괴정동)","lng":"128.9941751","lat":"35.0985294","callnum":"051-201-5275","monday":"09:00 ~ 20:00","tuesday":"09:00 ~ 20:00","wednesday":"09:00 ~ 20:00","thursday":"09:00 ~ 20:00","friday":"09:00 ~ 20:00","saturday":"09:00 ~ 16:00","sunday":"09:00 ~ 13:00","sample":"X"},
{"no":"64","sido":"부산","name":"삼육부산병원","address":"부산광역시 서구 대티로 170 (서대신동2가)","lng":"129.0111069","lat":"35.1125233","callnum":"051-242-9751","monday":"09:00 ~ 17:30","tuesday":"09:00 ~ 17:30","wednesday":"09:00 ~ 17:30","thursday":"09:00 ~ 17:30","friday":"09:00 ~ 12:30","saturday":"미운영","sunday":"09:00 ~ 17:30","sample":"○"},
{"no":"65","sido":"부산","name":"수영구보건소","address":"부산광역시 수영구 수영로 637-5 1층 (광안동)","lng":"129.1134554","lat":"35.1625907","callnum":"051-610-5675","monday":"미운영","tuesday":"미운영","wednesday":"09:00 ~ 12:00","thursday":"미운영","friday":"미운영","saturday":"미운영","sunday":"미운영","sample":"○"},
{"no":"66","sido":"부산","name":"좋은강안병원","address":"부산광역시 수영구 수영로 493 (남천동)","lng":"129.110051","lat":"35.1503451","callnum":"051-625-0900","monday":"09:00 ~ 17:00","tuesday":"09:00 ~ 17:00","wednesday":"09:00 ~ 17:00","thursday":"09:00 ~ 17:00","friday":"09:00 ~ 17:00","saturday":"09:00 ~ 13:00","sunday":"미운영","sample":"○"},
{"no":"67","sido":"부산","name":"한양류마디병원","address":"부산광역시 연제구 과정로 272","lng":"129.0977091","lat":"35.1882615","callnum":"051-714(752)-1990","monday":"09:00 ~ 17:30","tuesday":"09:00 ~ 17:30","wednesday":"09:00 ~ 17:30","thursday":"09:00 ~ 17:30","friday":"09:00 ~ 17:30","saturday":"09:00 ~ 12:00","sunday":"미운영","sample":"○"},
{"no":"68","sido":"부산","name":"부산광역시의료원","address":"부산광역시 연제구 월드컵대로 359 (거제동 1동 5동일부)","lng":"129.0598035","lat":"35.187166","callnum":"051-507-3000","monday":"08:30 ~ 17:30","tuesday":"08:30 ~ 17:30","wednesday":"08:30 ~ 17:30","thursday":"08:30 ~ 17:30","friday":"08:30 ~ 17:30","saturday":"미운영","sunday":"미운영","sample":"○"},
{"no":"69","sido":"부산","name":"아이(i)서울병원","address":"부산광역시 영도구 영선대로 75 삼호빌딩 (영선동2가)","lng":"129.0417047","lat":"35.0877733","callnum":"051-730-8300","monday":"09:00 ~ 20:00","tuesday":"09:00 ~ 20:00","wednesday":"09:00 ~ 20:00","thursday":"09:00 ~ 20:00","friday":"09:00 ~ 20:00","saturday":"09:00 ~ 17:00","sunday":"09:00 ~ 13:00","sample":"○"},
{"no":"70","sido":"부산","name":"영도병원","address":"부산광역시 영도구 태종로 85 (대교동2가)","lng":"129.0404998","lat":"35.0922005","callnum":"051-414-8101","monday":"09:00 ~ 17:00","tuesday":"09:00 ~ 17:00","wednesday":"09:00 ~ 17:00","thursday":"09:00 ~ 17:00","friday":"09:00 ~ 17:00","saturday":"09:00 ~ 13:00","sunday":"미운영","sample":"○"},
{"no":"71","sido":"부산","name":"해동병원","address":"부산광역시 영도구 태종로 133 (봉래동3가)","lng":"129.0437983","lat":"35.0920009","callnum":"051-412-6161","monday":"09:00 ~ 17:00","tuesday":"09:00 ~ 17:00","wednesday":"09:00 ~ 17:00","thursday":"09:00 ~ 17:00","friday":"09:00 ~ 17:00","saturday":"09:00 ~ 13:00","sunday":"미운영","sample":"○"},
{"no":"72","sido":"부산","name":"온종합병원","address":"부산광역시 부산진구 가야대로 721 719 767 (당감동)","lng":"129.0498965","lat":"35.1578761","callnum":"051-607-0114","monday":"09:00 ~ 18:00","tuesday":"09:00 ~ 17:00","wednesday":"09:00 ~ 17:00","thursday":"09:00 ~ 17:00","friday":"09:00 ~ 17:00","saturday":"09:00 ~ 13:00","sunday":"미운영","sample":"○"},
{"no":"73","sido":"부산","name":"구포성심병원","address":"부산광역시 북구 낙동대로 1786 (구포동)","lng":"129.0046989","lat":"35.2096836","callnum":"051-330-2001","monday":"08:30 ~ 17:00","tuesday":"08:30 ~ 17:00","wednesday":"08:30 ~ 17:00","thursday":"08:30 ~ 17:00","friday":"08:30 ~ 17:00","saturday":"08:30 ~ 12:30","sunday":"미운영","sample":"○"},
{"no":"74","sido":"부산","name":"부민병원","address":"부산광역시 북구 만덕대로 59 (덕천동)","lng":"129.0112061","lat":"35.2118919","callnum":"051-330-3000","monday":"09:00 ~ 17:00","tuesday":"09:00 ~ 17:00","wednesday":"09:00 ~ 17:00","thursday":"09:00 ~ 17:00","friday":"09:00 ~ 17:00","saturday":"09:00 ~ 17:00","sunday":"09:00 ~ 17:00","sample":"○"},
{"no":"75","sido":"부산","name":"부산시북구보건소","address":"부산광역시 북구 금곡대로 348 호흡기 전담 클리닉 (화명동)","lng":"129.0146766","lat":"35.2392288","callnum":"051-309-7049","monday":"13:30 ~ 17:30","tuesday":"13:30 ~ 17:30","wednesday":"13:30 ~ 17:30","thursday":"13:30 ~ 17:30","friday":"13:30 ~ 17:30","saturday":"미운영","sunday":"미운영","sample":"○"},
{"no":"76","sido":"부산","name":"해운대구보건소","address":"부산광역시 해운대구 양운로37번길 59 ","lng":"129.1787968","lat":"35.1640727","callnum":"051-749-7505","monday":"14:00 ~ 18:00","tuesday":"14:00 ~ 18:00","wednesday":"14:00 ~ 18:00","thursday":"14:00 ~ 18:00","friday":"14:00 ~ 18:00","saturday":"미운영","sunday":"미운영","sample":"○"},
{"no":"77","sido":"부산","name":"해운대푸른바다어린이병원","address":"부산광역시 해운대구 좌동순환로 505 센트럴메디타워 12층 13층 (중동)","lng":"129.1682161","lat":"35.1656535","callnum":"051-714-3501","monday":"09:00 ~ 18:00","tuesday":"09:00 ~ 18:00","wednesday":"09:00 ~ 18:00","thursday":"09:00 ~ 18:00","friday":"09:00 ~ 18:00","saturday":"09:00 ~ 13:00","sunday":"미운영","sample":"○"},
{"no":"78","sido":"부산","name":"해운대부민병원","address":"부산광역시 해운대구 해운대로 584 (우동)","lng":"129.1556646","lat":"35.1614112","callnum":"051-602-8000","monday":"09:00 ~ 18:00","tuesday":"09:00 ~ 17:00","wednesday":"09:00 ~ 17:00","thursday":"09:00 ~ 17:00","friday":"09:00 ~ 17:00","saturday":"09:00 ~ 13:00","sunday":"미운영","sample":"○"},
{"no":"79","sido":"부산","name":"효성시티병원","address":"부산광역시 해운대구 해운대로 135 (재송동)","lng":"129.121471","lat":"35.1851774","callnum":"051-709-3000","monday":"09:00 ~ 17:00","tuesday":"09:00 ~ 17:00","wednesday":"09:00 ~ 17:00","thursday":"09:00 ~ 17:00","friday":"09:00 ~ 17:00","saturday":"미운영","sunday":"미운영","sample":"X"},
{"no":"80","sido":"대구","name":"드림병원","address":"대구광역시 남구 대명로 153 (대명동)","lng":"128.5744734","lat":"35.8395988","callnum":"053-640-8800","monday":"08:30 ~ 17:30","tuesday":"08:30 ~ 17:30","wednesday":"08:30 ~ 17:30","thursday":"08:30 ~ 17:30","friday":"08:30 ~ 17:30","saturday":"08:30 ~ 12:30","sunday":"미운영","sample":"○"},
{"no":"81","sido":"대구","name":"한영한마음아동병원","address":"대구광역시 남구 월배로 468 (대명동)","lng":"128.5559639","lat":"35.8346295","callnum":"053-260-7777","monday":"09:00 ~ 23:00","tuesday":"09:00 ~ 23:00","wednesday":"09:00 ~ 23:00","thursday":"09:00 ~ 23:00","friday":"09:00 ~ 23:00","saturday":"09:00 ~ 18:00","sunday":"09:00 ~ 18:00","sample":"○"},
{"no":"82","sido":"대구","name":"삼일병원","address":"대구광역시 달서구 월배로 446","lng":"128.5543807","lat":"35.8329783","callnum":"053-659-3100","monday":"09:00 ~ 18:00","tuesday":"09:00 ~ 18:00","wednesday":"09:00 ~ 18:00","thursday":"09:00 ~ 18:00","friday":"09:00 ~ 18:00","saturday":"09:00 ~ 13:00","sunday":"미운영","sample":"○"},
{"no":"83","sido":"대구","name":"세강병원","address":"대구광역시 달서구 구마로 220","lng":"128.5517061","lat":"35.8367492","callnum":"053-215-6200","monday":"09:00 ~ 17:00","tuesday":"09:00 ~ 17:00","wednesday":"09:00 ~ 17:00","thursday":"09:00 ~ 17:00","friday":"09:00 ~ 17:00","saturday":"09:00 ~ 13:00","sunday":"미운영","sample":"○"},
{"no":"84","sido":"대구","name":"구병원","address":"대구광역시 달서구 감삼북길 141 (감삼동)","lng":"128.5413849","lat":"35.8506855","callnum":"053-560-9114","monday":"09:00 ~ 17:30","tuesday":"09:00 ~ 17:30","wednesday":"09:00 ~ 17:30","thursday":"09:00 ~ 17:30","friday":"09:00 ~ 17:30","saturday":"09:00 ~ 13:00","sunday":"미운영","sample":"○"},
{"no":"85","sido":"대구","name":"진천신라병원","address":"대구광역시 달서구 월배로 10 (진천동)","lng":"128.5169487","lat":"35.8110266","callnum":"053-642-2475","monday":"14:00 ~ 18:00","tuesday":"14:00 ~ 18:00","wednesday":"14:00 ~ 18:00","thursday":"14:00 ~ 18:00","friday":"14:00 ~ 18:00","saturday":"미운영","sunday":"미운영","sample":"○"},
{"no":"86","sido":"대구","name":"더블유병원","address":"대구광역시 달서구 달구벌대로 1632 (감삼동)","lng":"128.5449631","lat":"35.8526432","callnum":"053-550-5000","monday":"09:00 ~ 18:00","tuesday":"09:00 ~ 18:00","wednesday":"09:00 ~ 18:00","thursday":"09:00 ~ 18:00","friday":"09:00 ~ 18:00","saturday":"09:00 ~ 13:00","sunday":"미운영","sample":"○"},
{"no":"87","sido":"대구","name":"대구파티마병원","address":"대구광역시 동구 아양로 99 (신암동)","lng":"128.6239471","lat":"35.8840124","callnum":"053-1688-7770","monday":"09:00 ~ 17:00","tuesday":"09:00 ~ 17:00","wednesday":"09:00 ~ 17:00","thursday":"09:00 ~ 17:00","friday":"09:00 ~ 17:00","saturday":"09:00 ~ 12:00","sunday":"미운영","sample":"○"},
{"no":"88","sido":"대구","name":"칠곡가톨릭병원","address":"대구광역시 북구 칠곡중앙대로 440 (읍내동)","lng":"128.5492621","lat":"35.9349228","callnum":"053-320-2500","monday":"09:00 ~ 17:00","tuesday":"09:00 ~ 17:00","wednesday":"09:00 ~ 17:00","thursday":"09:00 ~ 17:00","friday":"09:00 ~ 17:00","saturday":"09:00 ~ 12:00","sunday":"미운영","sample":"○"},
{"no":"89","sido":"대구","name":"새동산병원","address":"대구광역시 서구 국채보상로 379","lng":"128.5723959","lat":"35.8724439","callnum":"053-720-0365","monday":"09:00 ~ 18:00","tuesday":"09:00 ~ 18:00","wednesday":"09:00 ~ 18:00","thursday":"09:00 ~ 18:00","friday":"09:00 ~ 18:00","saturday":"09:00 ~ 13:00","sunday":"미운영","sample":"○"},
{"no":"90","sido":"대구","name":"수성구보건소","address":"대구광역시 수성구 수성로 213 수성구보건소 (중동)","lng":"128.6119401","lat":"35.844966","callnum":"053-666-3111","monday":"미운영","tuesday":"09:00 ~ 11:00","wednesday":"미운영","thursday":"미운영","friday":"미운영","saturday":"미운영","sunday":"미운영","sample":"○"},
{"no":"91","sido":"인천","name":"비에스종합병원","address":"인천광역시 강화군 강화읍 충렬사로 31-0  ","lng":"126.4861959","lat":"37.7359287","callnum":"032-290-0001","monday":"08:30 ~ 17:30","tuesday":"08:30 ~ 17:30","wednesday":"08:30 ~ 17:30","thursday":"08:30 ~ 17:30","friday":"08:30 ~ 17:30","saturday":"08:30 ~ 12:30","sunday":"08:30 ~ 17:30","sample":"○"},
{"no":"92","sido":"인천","name":"한림병원","address":"인천광역시 계양구 장제로 722","lng":"126.7343307","lat":"37.5322447","callnum":"032-540-9114","monday":"08:30 ~ 17:30","tuesday":"08:30 ~ 17:30","wednesday":"08:30 ~ 17:30","thursday":"08:30 ~ 17:30","friday":"08:30 ~ 17:30","saturday":"08:30 ~ 12:30","sunday":"미운영","sample":"○"},
{"no":"93","sido":"인천","name":"메디플렉스 세종병원","address":"인천광역시 계양구 계약문화로 20","lng":"126.7368466","lat":"37.53212017","callnum":"032-240-8000","monday":"08:30 ~ 16:30","tuesday":"08:30 ~ 16:30","wednesday":"08:30 ~ 16:30","thursday":"08:30 ~ 16:30","friday":"08:30 ~ 16:30","saturday":"08:30 ~ 11:30","sunday":"미운영","sample":"○"},
{"no":"94","sido":"인천","name":"더한스메디의원","address":"인천광역시 남동구 호구포로 870 234층 (구월동)","lng":"126.7203035","lat":"37.4598763","callnum":"032-465-2004","monday":"14:00 ~ 18:00","tuesday":"14:00 ~ 18:00","wednesday":"미운영","thursday":"14:00 ~ 18:00","friday":"14:00 ~ 18:00","saturday":"미운영","sunday":"미운영","sample":"X"},
{"no":"95","sido":"인천","name":"꽃보다이비인후과의원","address":"인천광역시 남동구 구월남로 172 3층 일부호 (구월동)","lng":"126.7084334","lat":"37.4527552","callnum":"032-465-1904","monday":"08:30 ~ 19:00","tuesday":"08:30 ~ 19:00","wednesday":"08:30 ~ 19:00","thursday":"08:30 ~ 19:00","friday":"08:30 ~ 19:00","saturday":"08:30 ~ 14:00","sunday":"미운영","sample":"X"},
{"no":"96","sido":"인천","name":"인천광역시의료원","address":"인천광역시 동구 방축로 217","lng":"126.6692239","lat":"37.4784138","callnum":"032-580-6000","monday":"00:00 ~ 24:00","tuesday":"00:00 ~ 24:00","wednesday":"00:00 ~ 24:00","thursday":"00:00 ~ 24:00","friday":"00:00 ~ 24:00","saturday":"00:00 ~ 24:00","sunday":"00:00 ~ 24:00","sample":"○"},
{"no":"97","sido":"인천","name":"인천광역시동구보건소","address":"인천광역시 동구 석수로 90 인천광역시 동구보건소 (만석동)","lng":"126.6258962","lat":"37.4829365","callnum":"032-770-6318","monday":"14:00 ~ 17:00","tuesday":"14:00 ~ 17:00","wednesday":"14:00 ~ 17:00","thursday":"14:00 ~ 17:00","friday":"14:00 ~ 17:00","saturday":"미운영","sunday":"미운영","sample":"○"},
{"no":"98","sido":"인천","name":"인천백병원","address":"인천광역시 동구 샛골로 214 (송림동)","lng":"126.6458293","lat":"37.481698","callnum":"032-765-7070","monday":"09:00 ~ 18:00","tuesday":"09:00 ~ 18:00","wednesday":"09:00 ~ 18:00","thursday":"09:00 ~ 18:00","friday":"09:00 ~ 18:00","saturday":"09:00 ~ 13:00","sunday":"미운영","sample":"○"},
{"no":"99","sido":"인천","name":"국제바로병원","address":"인천광역시 미추홀구 인주대로 458","lng":"126.6875632","lat":"37.450543","callnum":"032-722-8585","monday":"09:00 ~ 18:00","tuesday":"09:00 ~ 18:00","wednesday":"09:00 ~ 18:00","thursday":"09:00 ~ 18:00","friday":"09:00 ~ 18:00","saturday":"09:00 ~ 13:00","sunday":"미운영","sample":"X"},
{"no":"100","sido":"인천","name":"현대유비스병원","address":"인천광역시 미추홀구 독배로 503-0","lng":"126.6431596","lat":"37.4617638","callnum":"032-888-7575","monday":"08:30 ~ 17:30","tuesday":"08:30 ~ 17:30","wednesday":"08:30 ~ 17:30","thursday":"08:30 ~ 17:30","friday":"08:30 ~ 17:30","saturday":"08:30 ~ 13:00","sunday":"미운영","sample":"○"},
{"no":"101","sido":"인천","name":"인천사랑병원","address":"인천광역시 미추홀구 미추홀대로 726","lng":"126.6806792","lat":"37.4621977","callnum":"032-457-2000","monday":"08:30 ~ 17:30","tuesday":"08:30 ~ 17:30","wednesday":"08:30 ~ 17:30","thursday":"08:30 ~ 17:30","friday":"08:30 ~ 17:30","saturday":"08:30 ~ 12:30","sunday":"미운영","sample":"○"},
{"no":"102","sido":"인천","name":"주안성모이비인후과의원","address":"인천광역시 미추홀구 석정로 391 2층 (주안동)","lng":"126.6789868","lat":"37.4671615","callnum":"032-872-8281","monday":"09:00 ~ 19:00","tuesday":"09:00 ~ 19:00","wednesday":"09:00 ~ 19:00","thursday":"09:00 ~ 19:00","friday":"09:00 ~ 19:00","saturday":"09:00 ~ 16:00","sunday":"미운영","sample":"○"},
{"no":"103","sido":"인천","name":"부평구보건소","address":"인천광역시 부평구 부흥로 291","lng":"126.7242642","lat":"37.4988436","callnum":"032-526-7182","monday":"14:00 ~ 16:00","tuesday":"14:00 ~ 16:00","wednesday":"14:00 ~ 16:00","thursday":"14:00 ~ 16:00","friday":"14:00 ~ 16:00","saturday":"미운영","sunday":"미운영","sample":"○"},
{"no":"104","sido":"인천","name":"부평세림병원","address":"인천광역시 부평구 부평대로 175-   (청천동)","lng":"126.7195481","lat":"37.5068027","callnum":"032-524-0591","monday":"08:30 ~ 17:30","tuesday":"08:30 ~ 17:30","wednesday":"08:30 ~ 17:30","thursday":"08:30 ~ 17:30","friday":"08:30 ~ 17:30","saturday":"08:30 ~ 12:30","sunday":"미운영","sample":"○"},
{"no":"105","sido":"인천","name":"다인이비인후과병원","address":"인천광역시 부평구 경원대로 1242 우암빌딩 (산곡동)","lng":"126.7088287","lat":"37.4876023","callnum":"032-515-2325","monday":"미운영","tuesday":"11:00 ~ 18:00","wednesday":"11:00 ~ 18:00","thursday":"11:00 ~ 18:00","friday":"11:00 ~ 18:00","saturday":"미운영","sunday":"미운영","sample":"○"},
{"no":"106","sido":"인천","name":"근로복지공단인천병원","address":"인천광역시 부평구 무네미로 446-  (구산동)","lng":"126.7544501","lat":"37.4755678","callnum":"032-500-0114","monday":"13:30 ~ 17:30","tuesday":"13:30 ~ 17:30","wednesday":"13:30 ~ 17:30","thursday":"13:30 ~ 17:30","friday":"13:30 ~ 17:30","saturday":"미운영","sunday":"미운영","sample":"○"},
{"no":"107","sido":"인천","name":"청라연세어린이병원","address":"인천광역시 서구 중봉대로612번길 10-16 345층 (연희동마르씨엘)","lng":"126.6516272","lat":"37.5333836","callnum":"032-590-1500","monday":"08:30 ~ 21:00","tuesday":"08:30 ~ 21:00","wednesday":"08:30 ~ 21:00","thursday":"08:30 ~ 21:00","friday":"08:30 ~ 21:00","saturday":"08:30 ~ 16:00","sunday":"09:00 ~ 13:00","sample":"○"},
{"no":"108","sido":"인천","name":"나은병원","address":"인천광역시 서구 원적로 23-  23","lng":"126.6797783","lat":"37.48902248","callnum":"032-584-0114","monday":"08:30 ~ 17:30","tuesday":"08:30 ~ 17:30","wednesday":"08:30 ~ 17:30","thursday":"08:30 ~ 17:30","friday":"08:30 ~ 17:30","saturday":"08:30 ~ 12:30","sunday":"미운영","sample":"○"},
{"no":"109","sido":"인천","name":"온누리병원","address":"인천광역시 서구 완정로 199 199","lng":"126.6543389","lat":"37.6027922","callnum":"032-567-6200","monday":"08:30 ~ 17:30","tuesday":"08:30 ~ 17:30","wednesday":"08:30 ~ 17:30","thursday":"08:30 ~ 17:30","friday":"08:30 ~ 17:30","saturday":"00:00 ~ 24:00","sunday":"00:00 ~ 24:00","sample":"○"},
{"no":"110","sido":"인천","name":"검단탑병원","address":"인천광역시 서구 청마로19번길 5-  (당하동)","lng":"126.6709124","lat":"37.5929338","callnum":"032-590-0114","monday":"08:30 ~ 12:30","tuesday":"08:30 ~ 12:30","wednesday":"08:30 ~ 12:30","thursday":"08:30 ~ 12:30","friday":"08:30 ~ 12:30","saturday":"미운영","sunday":"미운영","sample":"○"},
{"no":"111","sido":"인천","name":"뉴성민병원","address":"인천광역시 서구 신석로 70-  70","lng":"126.6697741","lat":"37.50977348","callnum":"032-726-1000","monday":"09:00 ~ 17:30","tuesday":"09:00 ~ 17:30","wednesday":"09:00 ~ 17:30","thursday":"09:00 ~ 17:30","friday":"09:00 ~ 17:30","saturday":"09:00 ~ 12:30","sunday":"미운영","sample":"○"},
{"no":"112","sido":"인천","name":"인천적십자병원","address":"인천광역시 연수구 원인재로 263","lng":"126.6897498","lat":"37.4184815","callnum":"032-899-4000","monday":"13:30 ~ 17:30","tuesday":"13:30 ~ 17:30","wednesday":"13:30 ~ 17:30","thursday":"13:30 ~ 17:30","friday":"13:30 ~ 17:30","saturday":"미운영","sunday":"미운영","sample":"○"},
{"no":"113","sido":"인천","name":"나사렛국제병원","address":"인천광역시 연수구 먼우금로 98-   (동춘동)","lng":"126.670494","lat":"37.4079497","callnum":"032-899-9999","monday":"09:00 ~ 17:30","tuesday":"09:00 ~ 17:30","wednesday":"09:00 ~ 17:30","thursday":"09:00 ~ 17:30","friday":"09:00 ~ 17:30","saturday":"09:00 ~ 13:00","sunday":"미운영","sample":"○"},
{"no":"114","sido":"인천","name":"연수구보건소","address":"인천광역시 연수구 함박뫼로 13  (청학동)","lng":"126.671144","lat":"37.4191118","callnum":"032-749-8000","monday":"미운영","tuesday":"09:30 ~ 11:30","wednesday":"미운영","thursday":"09:30 ~ 11:30","friday":"미운영","saturday":"미운영","sunday":"미운영","sample":"○"},
{"no":"115","sido":"인천","name":"인천광역시의료원 백령병원","address":"인천광역시 옹진군 백령면 백령로 233","lng":"124.7209896","lat":"37.9678849","callnum":"032-836-1733","monday":"00:00 ~ 24:00","tuesday":"00:00 ~ 24:00","wednesday":"00:00 ~ 24:00","thursday":"00:00 ~ 24:00","friday":"00:00 ~ 24:00","saturday":"00:00 ~ 24:00","sunday":"00:00 ~ 24:00","sample":"○"},
{"no":"116","sido":"인천","name":"인천기독병원","address":"인천광역시 중구 답동로30번길 10 (율목동)","lng":"126.6320814","lat":"37.4711238","callnum":"032-270-8000","monday":"09:00 ~ 17:00","tuesday":"09:00 ~ 17:00","wednesday":"09:00 ~ 17:00","thursday":"09:00 ~ 17:00","friday":"09:00 ~ 17:00","saturday":"미운영","sunday":"미운영","sample":"○"},
{"no":"117","sido":"광주","name":"광산수완미래아동병원","address":"광주광역시 광산구 임방울대로 162 (운남동 광산미래아동병원)","lng":"126.8181287","lat":"35.1755984","callnum":"062-605-2500","monday":"09:00 ~ 21:00","tuesday":"09:00 ~ 21:00","wednesday":"09:00 ~ 21:00","thursday":"09:00 ~ 21:00","friday":"09:00 ~ 21:00","saturday":"09:00 ~ 18:00","sunday":"09:00 ~ 16:00","sample":"○"},
{"no":"118","sido":"광주","name":"광산하나아동병원","address":"광주광역시 광산구 장신로 141 3~9층 (수완동)","lng":"126.8256356","lat":"35.1910037","callnum":"062-467-3300","monday":"09:00 ~ 19:00","tuesday":"09:00 ~ 19:00","wednesday":"09:00 ~ 19:00","thursday":"09:00 ~ 19:00","friday":"09:00 ~ 19:00","saturday":"09:00 ~ 18:00","sunday":"09:00 ~ 12:30","sample":"○"},
{"no":"119","sido":"광주","name":"광주수완병원","address":"광주광역시 광산구 임방울대로 370  (수완동)","lng":"126.8242008","lat":"35.1930449","callnum":"062-958-1111","monday":"09:00 ~ 17:30","tuesday":"09:00 ~ 17:30","wednesday":"09:00 ~ 17:30","thursday":"09:00 ~ 17:30","friday":"09:00 ~ 17:30","saturday":"09:00 ~ 13:00","sunday":"미운영","sample":"○"},
{"no":"120","sido":"광주","name":"첨단종합병원","address":"광주광역시 광산구 첨단중앙로170번길 59  (쌍암동)","lng":"126.8453031","lat":"35.2211093","callnum":"062-601-8000","monday":"09:00 ~ 17:00","tuesday":"09:00 ~ 17:00","wednesday":"09:00 ~ 17:00","thursday":"09:00 ~ 17:00","friday":"09:00 ~ 17:00","saturday":"09:00 ~ 12:00","sunday":"미운영","sample":"○"},
{"no":"121","sido":"광주","name":"하나아동병원","address":"광주광역시 광산구 임방울대로 784 (월계동)","lng":"126.8441493","lat":"35.2172675","callnum":"062-975-3300","monday":"09:00 ~ 21:00","tuesday":"09:00 ~ 21:00","wednesday":"09:00 ~ 21:00","thursday":"09:00 ~ 21:00","friday":"09:00 ~ 21:00","saturday":"09:00 ~ 18:00","sunday":"09:00 ~ 12:30","sample":"X"},
{"no":"122","sido":"광주","name":"KS병원","address":"광주광역시 광산구 왕버들로 220  (수완동)","lng":"126.8332011","lat":"35.1979002","callnum":"062-975-9000","monday":"09:00 ~ 16:00","tuesday":"09:00 ~ 16:00","wednesday":"09:00 ~ 16:00","thursday":"09:00 ~ 16:00","friday":"09:00 ~ 16:00","saturday":"09:00 ~ 12:00","sunday":"미운영","sample":"○"},
{"no":"123","sido":"광주","name":"하남성심병원","address":"광주광역시 광산구 용아로 259  (산정동)","lng":"126.8007622","lat":"35.1665852","callnum":"062-953-6000","monday":"09:00 ~ 17:00","tuesday":"09:00 ~ 17:00","wednesday":"09:00 ~ 17:00","thursday":"09:00 ~ 17:00","friday":"09:00 ~ 17:00","saturday":"09:00 ~ 13:00","sunday":"미운영","sample":"○"},
{"no":"124","sido":"광주","name":"수완센트럴병원","address":"광주광역시 광산구 수완로 6 A동1356층\/B동동 (신가동)","lng":"126.8294552","lat":"35.1857496","callnum":"062-950-9700","monday":"09:00 ~ 12:00","tuesday":"09:00 ~ 12:00","wednesday":"09:00 ~ 12:00","thursday":"09:00 ~ 12:00","friday":"09:00 ~ 12:00","saturday":"09:00 ~ 12:00","sunday":"미운영","sample":"○"},
{"no":"125","sido":"광주","name":"광주백병원","address":"광주광역시 남구 독립로54번길 26","lng":"126.9048188","lat":"35.1382036","callnum":"062-650-1000","monday":"09:00 ~ 17:30","tuesday":"09:00 ~ 17:30","wednesday":"09:00 ~ 17:30","thursday":"09:00 ~ 17:30","friday":"09:00 ~ 17:30","saturday":"09:00 ~ 12:30","sunday":"미운영","sample":"X"},
{"no":"126","sido":"광주","name":"미래아동병원","address":"광주광역시 남구 대남대로 131","lng":"126.9107058","lat":"35.1336776","callnum":"062-600-2500","monday":"09:00 ~ 20:00","tuesday":"09:00 ~ 20:00","wednesday":"09:00 ~ 20:00","thursday":"09:00 ~ 20:00","friday":"09:00 ~ 20:00","saturday":"09:00 ~ 17:00","sunday":"09:00 ~ 16:00","sample":"○"},
{"no":"127","sido":"광주","name":"씨엠맘삼성병원","address":"광주광역시 동구 남문로 689 해피뷰삼성메디타워 지하1층지상2~6층 (학동)","lng":"126.928326","lat":"35.132122","callnum":"062-226-0600","monday":"09:00 ~ 17:00","tuesday":"09:00 ~ 17:00","wednesday":"09:00 ~ 17:00","thursday":"09:00 ~ 17:00","friday":"09:00 ~ 17:00","saturday":"09:00 ~ 13:00","sunday":"미운영","sample":"○"},
{"no":"128","sido":"광주","name":"에스케이제이병원","address":"광주광역시 북구 갈마로 27","lng":"126.9331442","lat":"35.1614507","callnum":"062-720-9100","monday":"09:00 ~ 18:00","tuesday":"09:00 ~ 18:00","wednesday":"09:00 ~ 18:00","thursday":"09:00 ~ 18:00","friday":"09:00 ~ 18:00","saturday":"09:00 ~ 13:00","sunday":"미운영","sample":"X"},
{"no":"129","sido":"광주","name":"북구미래아동병원","address":"광주광역시 북구 설죽로 346 (오치동)","lng":"126.8995741","lat":"35.190319","callnum":"062-250-2500","monday":"09:00 ~ 20:00","tuesday":"09:00 ~ 20:00","wednesday":"09:00 ~ 20:00","thursday":"09:00 ~ 20:00","friday":"09:00 ~ 20:00","saturday":"09:00 ~ 16:00","sunday":"09:00 ~ 16:00","sample":"X"},
{"no":"130","sido":"광주","name":"광주병원","address":"광주광역시 북구 면앙로139번길 51  (두암동)","lng":"126.9281632","lat":"35.1788485","callnum":"062-260-7106","monday":"09:00 ~ 17:30","tuesday":"09:00 ~ 17:30","wednesday":"09:00 ~ 17:30","thursday":"09:00 ~ 17:30","friday":"09:00 ~ 17:30","saturday":"09:00 ~ 12:30","sunday":"미운영","sample":"○"},
{"no":"131","sido":"광주","name":"서광병원","address":"광주광역시 서구 금화로59번길 6 (금호동)","lng":"126.8557059","lat":"35.1325308","callnum":"062-600-8000","monday":"09:00 ~ 17:00","tuesday":"09:00 ~ 17:00","wednesday":"09:00 ~ 17:00","thursday":"09:00 ~ 17:00","friday":"09:00 ~ 17:00","saturday":"09:00 ~ 12:00","sunday":"00:00 ~ 00:00","sample":"○"},
{"no":"132","sido":"광주","name":"우리아동병원","address":"광주광역시 서구 풍금로 167 (금호동)","lng":"126.8592845","lat":"35.1308429","callnum":"062-670-7000","monday":"09:00 ~ 20:00","tuesday":"09:00 ~ 20:00","wednesday":"09:00 ~ 20:00","thursday":"09:00 ~ 20:00","friday":"09:00 ~ 20:00","saturday":"미운영","sunday":"09:00 ~ 13:00","sample":"X"},
{"no":"133","sido":"대전","name":"대전광역시대덕구보건소","address":"대전광역시 대덕구 석봉로38번길 55","lng":"127.4264183","lat":"36.4449279","callnum":"042-608-4403","monday":"09:00 ~ 12:00","tuesday":"09:00 ~ 12:00","wednesday":"09:00 ~ 12:00","thursday":"09:00 ~ 12:00","friday":"09:00 ~ 12:00","saturday":"미운영","sunday":"미운영","sample":"○"},
{"no":"134","sido":"대전","name":"대전광역시동구보건소","address":"대전광역시 동구 동구청로 147 공영주차장","lng":"127.4548111","lat":"36.3118212","callnum":"042-251-6123","monday":"10:00 ~ 16:00","tuesday":"10:00 ~ 16:00","wednesday":"10:00 ~ 16:00","thursday":"10:00 ~ 16:00","friday":"10:00 ~ 16:00","saturday":"미운영","sunday":"미운영","sample":"○"},
{"no":"135","sido":"대전","name":"대전한국병원","address":"대전광역시 동구 동서대로 1672  (성남동)","lng":"127.4358185","lat":"36.3481976","callnum":"042-606-1000","monday":"09:00 ~ 17:00","tuesday":"09:00 ~ 17:00","wednesday":"09:00 ~ 17:00","thursday":"09:00 ~ 17:00","friday":"09:00 ~ 17:00","saturday":"09:00 ~ 12:00","sunday":"미운영","sample":"○"},
{"no":"136","sido":"대전","name":"조이병원","address":"대전광역시 서구 계룡로553번길 18  (탄방동)","lng":"127.3854416","lat":"36.3436502","callnum":"042-485-2235","monday":"08:00 ~ 22:00","tuesday":"08:00 ~ 22:00","wednesday":"08:00 ~ 22:00","thursday":"08:00 ~ 22:00","friday":"08:00 ~ 22:00","saturday":"08:00 ~ 18:00","sunday":"09:00 ~ 18:00","sample":"X"},
{"no":"137","sido":"대전","name":"서구보건소","address":"대전광역시 서구 구봉산북로 300 관저지소 1층 (관저동)","lng":"127.3450134","lat":"36.301095","callnum":"042-288-4620","monday":"09:30 ~ 11:30","tuesday":"09:30 ~ 11:30","wednesday":"09:30 ~ 11:30","thursday":"09:30 ~ 11:30","friday":"09:30 ~ 11:30","saturday":"미운영","sunday":"미운영","sample":"○"},
{"no":"138","sido":"대전","name":"워크런병원","address":"대전광역시 유성구 온천동로 43-0 본관지하1~3층9층\/신관2~3층","lng":"127.3506312","lat":"36.3553896","callnum":"042-607-1200","monday":"10:00 ~ 16:00","tuesday":"10:00 ~ 16:00","wednesday":"10:00 ~ 16:00","thursday":"10:00 ~ 16:00","friday":"10:00 ~ 16:00","saturday":"10:00 ~ 12:00","sunday":"미운영","sample":"○"},
{"no":"139","sido":"대전","name":"봉키병원","address":"대전광역시 유성구 계룡로 120-0  (봉명동)","lng":"127.3437128","lat":"36.3526481","callnum":"1661-6705","monday":"08:00 ~ 23:00","tuesday":"08:00 ~ 23:00","wednesday":"08:00 ~ 23:00","thursday":"08:00 ~ 23:00","friday":"08:00 ~ 23:00","saturday":"09:00 ~ 22:00","sunday":"09:00 ~ 22:00","sample":"X"},
{"no":"140","sido":"대전","name":"유성구보건소","address":"대전광역시 유성구 박산로 177 유성구보건소 (구암동)","lng":"127.3285653","lat":"36.35384985","callnum":"042-611-5068","monday":"09:00 ~ 12:00","tuesday":"09:00 ~ 12:00","wednesday":"09:00 ~ 12:00","thursday":"09:00 ~ 12:00","friday":"09:00 ~ 12:00","saturday":"미운영","sunday":"미운영","sample":"○"},
{"no":"141","sido":"대전","name":"유성선병원","address":"대전광역시 유성구 북유성대로 93 (지족동)","lng":"127.3248129","lat":"36.3750287","callnum":"042-609-1000","monday":"08:30 ~ 17:30","tuesday":"08:30 ~ 17:30","wednesday":"08:30 ~ 17:30","thursday":"08:30 ~ 17:30","friday":"08:30 ~ 17:30","saturday":"08:30 ~ 12:30","sunday":"미운영","sample":"○"},
{"no":"142","sido":"대전","name":"대전코젤병원","address":"대전광역시 유성구 계백로 927-0 0동 (원내동코젤랜드)","lng":"127.3267427","lat":"36.3010385","callnum":"042-520-0000","monday":"08:00 ~ 22:00","tuesday":"08:00 ~ 22:00","wednesday":"08:00 ~ 22:00","thursday":"08:00 ~ 22:00","friday":"08:00 ~ 22:00","saturday":"08:00 ~ 18:00","sunday":"09:00 ~ 18:00","sample":"○"},
{"no":"143","sido":"대전","name":"코젤병원","address":"대전광역시 유성구 계룡로 150  6~7층 (봉명동승호빌딩)","lng":"127.3468841","lat":"36.3517912","callnum":"042-829-0000","monday":"08:00 ~ 22:00","tuesday":"08:00 ~ 22:00","wednesday":"08:00 ~ 22:00","thursday":"08:00 ~ 22:00","friday":"08:00 ~ 22:00","saturday":"08:00 ~ 18:00","sunday":"09:00 ~ 18:00","sample":"○"},
{"no":"144","sido":"대전","name":"대전선병원","address":"대전광역시 중구 목중로 29 (목동)","lng":"127.4102304","lat":"36.3360334","callnum":"042-220-8114","monday":"08:30 ~ 17:30","tuesday":"08:30 ~ 17:30","wednesday":"08:30 ~ 17:30","thursday":"08:30 ~ 17:30","friday":"08:30 ~ 17:30","saturday":"08:30 ~ 12:30","sunday":"미운영","sample":"○"},
{"no":"145","sido":"대전","name":"대한결핵협회부설복십자의원","address":"대전광역시 중구 충무로 145 대한결핵협회 (부사동)","lng":"127.4325796","lat":"36.3201264","callnum":"042-349-9890","monday":"09:00 ~ 17:00","tuesday":"09:00 ~ 17:00","wednesday":"09:00 ~ 17:00","thursday":"13:00 ~ 17:00","friday":"13:00 ~ 17:00","saturday":"미운영","sunday":"미운영","sample":"○"},
{"no":"146","sido":"울산","name":"좋은삼정병원","address":"울산광역시 남구 북부순환도로 51","lng":"129.268933","lat":"35.5528276","callnum":"052-220-7500","monday":"09:30 ~ 17:00","tuesday":"09:30 ~ 17:00","wednesday":"09:30 ~ 12:00","thursday":"09:30 ~ 17:00","friday":"09:30 ~ 17:00","saturday":"09:30 ~ 12:00","sunday":"미운영","sample":"○"},
{"no":"147","sido":"울산","name":"중앙병원","address":"울산광역시 남구 문수로480번길 10 (신정동)","lng":"129.3051934","lat":"35.5315302","callnum":"052-226-1100","monday":"08:30 ~ 17:30","tuesday":"08:30 ~ 17:30","wednesday":"08:30 ~ 17:30","thursday":"08:30 ~ 17:30","friday":"08:30 ~ 17:30","saturday":"08:30 ~ 13:00","sunday":"미운영","sample":"○"},
{"no":"148","sido":"울산","name":"울산병원","address":"울산광역시 남구 월평로171번길 13 (신정동)","lng":"129.3230878","lat":"35.5462428","callnum":"052-259-5000","monday":"09:30 ~ 17:30","tuesday":"09:30 ~ 17:30","wednesday":"09:30 ~ 17:30","thursday":"09:30 ~ 17:30","friday":"09:30 ~ 17:30","saturday":"09:30 ~ 12:00","sunday":"미운영","sample":"○"},
{"no":"149","sido":"울산","name":"울산시티병원","address":"울산광역시 북구 산업로 1007","lng":"129.3588972","lat":"35.5828968","callnum":"052-280-9000","monday":"09:00 ~ 17:00","tuesday":"09:00 ~ 17:00","wednesday":"09:00 ~ 17:00","thursday":"09:00 ~ 17:00","friday":"09:00 ~ 17:00","saturday":"09:00 ~ 12:00","sunday":"미운영","sample":"○"},
{"no":"150","sido":"울산","name":"울산엘리야병원","address":"울산광역시 북구 호계로 285 (호계동)","lng":"129.3505898","lat":"35.6288929","callnum":"052-290-2100","monday":"09:00 ~ 18:00","tuesday":"09:00 ~ 18:00","wednesday":"09:00 ~ 18:00","thursday":"09:00 ~ 18:00","friday":"09:00 ~ 18:00","saturday":"09:00 ~ 13:00","sunday":"미운영","sample":"○"},
{"no":"151","sido":"울산","name":"서울산보람병원","address":"울산광역시 울주군 삼남면 중평로 53","lng":"129.1207882","lat":"35.559911","callnum":"052-255-7114","monday":"09:00 ~ 17:00","tuesday":"09:00 ~ 17:00","wednesday":"09:00 ~ 17:00","thursday":"09:00 ~ 17:00","friday":"09:00 ~ 17:00","saturday":"09:00 ~ 12:00","sunday":"미운영","sample":"○"},
{"no":"152","sido":"세종","name":"세종특별자치시보건소","address":"세종특별자치시 조치원읍 건강길 16","lng":"127.2964963","lat":"36.6056132","callnum":"044-301-2884","monday":"미운영","tuesday":"13:30 ~ 17:30","wednesday":"미운영","thursday":"13:30 ~ 17:30","friday":"미운영","saturday":"미운영","sunday":"미운영","sample":"○"},
{"no":"153","sido":"세종","name":"엔케이(NK)세종병원","address":"세종특별자치시 한누리대로 161 세종시 NK리움힐 상가 1~8층 (나성동)","lng":"127.2622609","lat":"36.4796245","callnum":"044-850-7700","monday":"09:00 ~ 18:00","tuesday":"09:00 ~ 18:00","wednesday":"09:00 ~ 18:00","thursday":"09:00 ~ 18:00","friday":"09:00 ~ 18:00","saturday":"미운영","sunday":"미운영","sample":"○"},
{"no":"154","sido":"경기","name":"가평군보건소","address":"경기도 가평군 가평읍 가화로 155-18 - ","lng":"127.5104708","lat":"37.8336011","callnum":"031-582-2488","monday":"14:00 ~ 16:00","tuesday":"미운영","wednesday":"미운영","thursday":"14:00 ~ 16:00","friday":"미운영","saturday":"미운영","sunday":"미운영","sample":"○"},
{"no":"155","sido":"경기","name":"고양시일산동구보건소","address":"경기도 고양시 일산동구 중앙로 1228","lng":"126.7754609","lat":"37.6570997","callnum":"031-8075-4135","monday":"10:00 ~ 12:00","tuesday":"미운영","wednesday":"10:00 ~ 12:00","thursday":"미운영","friday":"10:00 ~ 12:00","saturday":"미운영","sunday":"미운영","sample":"○"},
{"no":"156","sido":"경기","name":"일산복음병원","address":"경기도 고양시 일산동구 고양대로 760 가동 (중산동 일산복음병원)","lng":"126.7800186","lat":"37.6819156","callnum":"031-977-5000","monday":"09:00 ~ 17:00","tuesday":"09:00 ~ 17:00","wednesday":"09:00 ~ 17:00","thursday":"09:00 ~ 17:00","friday":"09:00 ~ 17:00","saturday":"09:00 ~ 12:00","sunday":"미운영","sample":"○"},
{"no":"157","sido":"경기","name":"고양시 일산서구보건소","address":"경기도 고양시 일산서구 일중로 54  (일산동)","lng":"126.7758627","lat":"37.6843863","callnum":"031-8075-4212","monday":"미운영","tuesday":"15:00 ~ 17:00","wednesday":"미운영","thursday":"15:00 ~ 17:00","friday":"미운영","saturday":"미운영","sunday":"미운영","sample":"○"},
{"no":"158","sido":"경기","name":"아름드리소아청소년과의원","address":"경기도 고양시 덕양구 도래울로 40 202호","lng":"126.870497","lat":"37.6311347","callnum":"031-963-7373","monday":"09:00 ~ 19:00","tuesday":"09:00 ~ 19:00","wednesday":"09:00 ~ 19:00","thursday":"09:00 ~ 19:00","friday":"09:00 ~ 19:00","saturday":"09:00 ~ 14:00","sunday":"미운영","sample":"X"},
{"no":"159","sido":"경기","name":"심욱섭소아과의원","address":"경기도 고양시 덕양구 마상로154번길 68 2층","lng":"126.8369633","lat":"37.6565238","callnum":"031-963-1823","monday":"10:00 ~ 17:00","tuesday":"10:00 ~ 17:00","wednesday":"10:00 ~ 17:00","thursday":"10:00 ~ 17:00","friday":"10:00 ~ 17:00","saturday":"10:00 ~ 14:00","sunday":"미운영","sample":"X"},
{"no":"160","sido":"경기","name":"삼송늘푸른소아청소년과의원","address":"경기도 고양시 덕양구 삼송로 94-22 301호","lng":"126.8840882","lat":"37.6503295","callnum":"02-371-3004","monday":"09:00 ~ 19:00","tuesday":"09:00 ~ 19:00","wednesday":"09:00 ~ 19:00","thursday":"09:00 ~ 19:00","friday":"09:00 ~ 19:00","saturday":"미운영","sunday":"09:00 ~ 13:00","sample":"X"},
{"no":"161","sido":"경기","name":"삼성키즈소아청소년과의원","address":"경기도 고양시 덕양구 동세로 86 3층","lng":"126.8838199","lat":"37.6500837","callnum":"02-388-1119","monday":"09:00 ~ 19:00","tuesday":"09:00 ~ 19:00","wednesday":"09:00 ~ 19:00","thursday":"09:00 ~ 19:00","friday":"09:00 ~ 19:00","saturday":"미운영","sunday":"미운영","sample":"X"},
{"no":"162","sido":"경기","name":"보람의원","address":"경기도 고양시 덕양구 삼송로 183","lng":"126.8941453","lat":"37.653776","callnum":"02-381-3527","monday":"09:30 ~ 17:00","tuesday":"09:30 ~ 17:00","wednesday":"09:30 ~ 17:00","thursday":"09:30 ~ 17:00","friday":"09:30 ~ 17:00","saturday":"09:30 ~ 13:00","sunday":"미운영","sample":"X"},
{"no":"163","sido":"경기","name":"서울이비인후과의원","address":"경기도 고양시 덕양구 화신로272번길 67 601호(화정동 장군빌딩)","lng":"126.8315614","lat":"37.633846","callnum":"031-978-9275","monday":"09:30 ~ 18:00","tuesday":"09:30 ~ 18:00","wednesday":"09:30 ~ 18:00","thursday":"09:30 ~ 18:00","friday":"09:30 ~ 18:00","saturday":"미운영","sunday":"미운영","sample":"X"},
{"no":"164","sido":"경기","name":"연세가족사랑의원","address":"경기도 고양시 덕양구 백양로 71 202호","lng":"126.8334705","lat":"37.6320268","callnum":"031-819-7575","monday":"09:00 ~ 18:00","tuesday":"09:00 ~ 18:00","wednesday":"09:00 ~ 18:00","thursday":"09:00 ~ 18:00","friday":"09:00 ~ 18:00","saturday":"09:00 ~ 13:00","sunday":"미운영","sample":"X"},
{"no":"165","sido":"경기","name":"화정연세내과의원","address":"경기도 고양시 덕양구 화정로 47 315호","lng":"126.8313944","lat":"37.6351057","callnum":"031-965-0217","monday":"09:00 ~ 18:30","tuesday":"09:00 ~ 18:30","wednesday":"09:00 ~ 18:30","thursday":"09:00 ~ 13:00","friday":"09:00 ~ 18:30","saturday":"09:00 ~ 14:00","sunday":"미운영","sample":"X"},
{"no":"166","sido":"경기","name":"세란가정의원","address":"경기도 고양시 덕양구 충경로 96 301호","lng":"126.8403245","lat":"37.6152724","callnum":"031-972-0543","monday":"09:00 ~ 18:30","tuesday":"09:00 ~ 18:30","wednesday":"09:00 ~ 18:30","thursday":"09:00 ~ 18:30","friday":"09:00 ~ 18:30","saturday":"09:00 ~ 13:00","sunday":"미운영","sample":"X"},
{"no":"167","sido":"경기","name":"한병상이비인후과의원","address":"경기도 고양시 덕양구 용현로 27 201202호","lng":"126.8356246","lat":"37.6152261","callnum":"031-974-2794","monday":"09:00 ~ 13:00","tuesday":"09:00 ~ 13:00","wednesday":"09:00 ~ 13:00","thursday":"09:00 ~ 13:00","friday":"09:00 ~ 13:00","saturday":"미운영","sunday":"미운영","sample":"X"},
{"no":"168","sido":"경기","name":"미래이비인후과의원","address":"경기도 고양시 일산서구 중앙로 1574 402호 (대화동 월드프라자)","lng":"126.747447","lat":"37.6765735","callnum":"031-911-6105","monday":"09:00 ~ 18:00","tuesday":"09:00 ~ 18:00","wednesday":"09:00 ~ 18:00","thursday":"09:00 ~ 18:00","friday":"09:00 ~ 18:00","saturday":"09:00 ~ 13:00","sunday":"미운영","sample":"X"},
{"no":"169","sido":"경기","name":"이준기이비인후과의원","address":"경기도 고양시 일산서구 강선로 152 301호 (일산동 두레빌딩)","lng":"126.7698484","lat":"37.676485","callnum":"031-913-2258","monday":"09:30 ~ 18:00","tuesday":"09:30 ~ 18:00","wednesday":"09:30 ~ 18:00","thursday":"09:30 ~ 18:00","friday":"09:30 ~ 18:00","saturday":"미운영","sunday":"미운영","sample":"X"},
{"no":"170","sido":"경기","name":"이가정의학과의원","address":"경기도 고양시 일산서구 후곡로 19 301302호 (일산동 화성프라자)","lng":"126.7632939","lat":"37.6793537","callnum":"031-919-3865","monday":"09:00 ~ 18:30","tuesday":"09:00 ~ 18:30","wednesday":"09:00 ~ 18:30","thursday":"09:00 ~ 18:30","friday":"09:00 ~ 18:30","saturday":"09:00 ~ 13:00","sunday":"미운영","sample":"X"},
{"no":"171","sido":"경기","name":"일산서울내과의원","address":"경기도 고양시 일산서구 중앙로 1470 문촌마을 복합상가 C동 204 205 206호 3동 205호 (주엽동)","lng":"126.7575605","lat":"37.6723918","callnum":"031-918-2322","monday":"09:00 ~ 18:00","tuesday":"09:00 ~ 18:00","wednesday":"09:00 ~ 18:00","thursday":"09:00 ~ 13:00","friday":"09:00 ~ 18:00","saturday":"09:00 ~ 13:00","sunday":"미운영","sample":"X"},
{"no":"172","sido":"경기","name":"서병국이비인후과의원","address":"경기도 고양시 일산서구 강선로 59 309호 (주엽동 동신파크빌딩)","lng":"126.764307","lat":"37.6695344","callnum":"031-914-3336","monday":"09:00 ~ 18:00","tuesday":"09:00 ~ 18:00","wednesday":"09:00 ~ 18:00","thursday":"09:00 ~ 18:00","friday":"09:00 ~ 18:00","saturday":"09:00 ~ 13:00","sunday":"미운영","sample":"X"},
{"no":"173","sido":"경기","name":"일산우리들소아청소년과의원","address":"경기도 고양시 일산서구 중앙로 1426 일송노블레스 207 208(일부) 810호 (주엽동)","lng":"126.761926","lat":"37.6702572","callnum":"031-916-9999","monday":"08:00 ~ 23:00","tuesday":"08:00 ~ 23:00","wednesday":"08:00 ~ 23:00","thursday":"08:00 ~ 23:00","friday":"08:00 ~ 23:00","saturday":"08:00 ~ 18:00","sunday":"09:00 ~ 18:00","sample":"X"},
{"no":"174","sido":"경기","name":"서울더블유(W)내과의원","address":"경기도 고양시 일산서구 중앙로 1576 태진프라자 3층","lng":"126.7471842","lat":"37.6766969","callnum":"031-926-3166","monday":"08:00 ~ 18:00","tuesday":"08:00 ~ 18:00","wednesday":"08:00 ~ 18:00","thursday":"08:00 ~ 18:00","friday":"08:00 ~ 18:00","saturday":"08:00 ~ 13:00","sunday":"미운영","sample":"X"},
{"no":"175","sido":"경기","name":"자인메디병원","address":"경기도 고양시 덕양구 중앙로 555 지하11-10층 (행신동)","lng":"126.835685","lat":"37.6229754","callnum":"031-930-3114","monday":"13:30 ~ 17:30","tuesday":"13:30 ~ 17:30","wednesday":"13:30 ~ 17:30","thursday":"13:30 ~ 17:30","friday":"13:30 ~ 17:30","saturday":"미운영","sunday":"미운영","sample":"X"},
{"no":"176","sido":"경기","name":"원흥아이제일병원","address":"경기도 고양시 덕양구 권율대로 685 SIB타워 910층 (원흥동)","lng":"126.8740688","lat":"37.6511984","callnum":"031-926-7000","monday":"08:00 ~ 21:00","tuesday":"08:00 ~ 21:00","wednesday":"08:00 ~ 21:00","thursday":"08:00 ~ 21:00","friday":"08:00 ~ 21:00","saturday":"09:00 ~ 18:00","sunday":"09:00 ~ 18:00","sample":"X"},
{"no":"177","sido":"경기","name":"과천시보건소","address":"경기도 과천시 관문로 69","lng":"126.9869937","lat":"37.4296831","callnum":"02-2150-3836","monday":"09:00 ~ 12:00","tuesday":"09:00 ~ 12:00","wednesday":"09:00 ~ 12:00","thursday":"09:00 ~ 12:00","friday":"09:00 ~ 12:00","saturday":"미운영","sunday":"미운영","sample":"○"},
{"no":"178","sido":"경기","name":"아이원병원","address":"경기도 광명시 소하로75번길 10","lng":"126.884977","lat":"37.4479301","callnum":"1833-7588","monday":"09:00 ~ 22:00","tuesday":"09:00 ~ 22:00","wednesday":"09:00 ~ 22:00","thursday":"09:00 ~ 22:00","friday":"09:00 ~ 22:00","saturday":"09:00 ~ 17:00","sunday":"09:00 ~ 17:00","sample":"X"},
{"no":"179","sido":"경기","name":"광명시보건소","address":"경기도 광명시 오리로 613(하안동)","lng":"126.8786571","lat":"37.4564123","callnum":"02-2680-6043","monday":"09:00 ~ 12:00","tuesday":"09:00 ~ 12:00","wednesday":"09:00 ~ 12:00","thursday":"09:00 ~ 12:00","friday":"09:00 ~ 12:00","saturday":"미운영","sunday":"미운영","sample":"○"},
{"no":"180","sido":"경기","name":"광명성애병원","address":"경기도 광명시 디지털로 36 (철산동 광명성애병원)","lng":"126.8719957","lat":"37.4732344","callnum":"02-2680-7114","monday":"09:00 ~ 17:00","tuesday":"09:00 ~ 17:00","wednesday":"09:00 ~ 17:00","thursday":"09:00 ~ 17:00","friday":"09:00 ~ 17:00","saturday":"미운영","sunday":"미운영","sample":"○"},
{"no":"181","sido":"경기","name":"원진녹색병원","address":"경기도 구리시 동구릉로 65","lng":"127.1338791","lat":"37.6059435","callnum":"031-550-1061","monday":"09:00 ~ 18:00","tuesday":"09:00 ~ 18:00","wednesday":"09:00 ~ 18:00","thursday":"09:00 ~ 18:00","friday":"09:00 ~ 18:00","saturday":"09:00 ~ 13:00","sunday":"미운영","sample":"○"},
{"no":"182","sido":"경기","name":"장스365의원","address":"경기도 구리시 체육관로74번길 80 (수택동)","lng":"127.1431861","lat":"37.5913605","callnum":"031-550-3105","monday":"09:00 ~ 21:00","tuesday":"09:00 ~ 21:00","wednesday":"09:00 ~ 21:00","thursday":"09:00 ~ 21:00","friday":"09:00 ~ 21:00","saturday":"09:00 ~ 18:00","sunday":"09:00 ~ 18:00","sample":"X"},
{"no":"183","sido":"경기","name":"군포시보건소","address":"경기도 군포시 군포로 221","lng":"126.9256756","lat":"37.3330707","callnum":"031-390-8943","monday":"09:00 ~ 18:00","tuesday":"09:00 ~ 18:00","wednesday":"09:00 ~ 18:00","thursday":"09:00 ~ 18:00","friday":"09:00 ~ 18:00","saturday":"미운영","sunday":"미운영","sample":"○"},
{"no":"184","sido":"경기","name":"원광대학교 산본병원","address":"경기도 군포시 산본로 321 (산본동)","lng":"126.9336197","lat":"37.3594087","callnum":"031-390-2300","monday":"08:30 ~ 17:00","tuesday":"08:30 ~ 17:00","wednesday":"08:30 ~ 17:00","thursday":"08:30 ~ 17:00","friday":"08:30 ~ 17:00","saturday":"08:30 ~ 12:30","sunday":"미운영","sample":"○"},
{"no":"185","sido":"경기","name":"지샘병원","address":"경기도 군포시 군포로 591 (당동 (G샘병원)군포샘병원)","lng":"126.9474131","lat":"37.3586672","callnum":"031-389-3000","monday":"09:00 ~ 17:00","tuesday":"09:00 ~ 17:00","wednesday":"09:00 ~ 17:00","thursday":"09:00 ~ 17:00","friday":"09:00 ~ 17:00","saturday":"09:00 ~ 12:00","sunday":"미운영","sample":"○"},
{"no":"186","sido":"경기","name":"히즈메디병원","address":"경기도 김포시 김포대로 681 (풍무동)","lng":"126.7348965","lat":"37.6111978","callnum":"1588-0223","monday":"08:30 ~ 21:00","tuesday":"08:00 ~ 21:00","wednesday":"08:00 ~ 21:00","thursday":"08:00 ~ 21:00","friday":"08:00 ~ 21:00","saturday":"08:30 ~ 17:00","sunday":"08:30 ~ 17:00","sample":"○"},
{"no":"187","sido":"경기","name":"뉴고려병원","address":"경기도 김포시 김포한강3로 283 뉴고려병원 (장기동)","lng":"126.6601781","lat":"37.640899","callnum":"031-998-8129","monday":"08:30 ~ 17:30","tuesday":"08:30 ~ 17:30","wednesday":"08:30 ~ 17:30","thursday":"08:30 ~ 17:30","friday":"08:30 ~ 17:30","saturday":"08:30 ~ 13:00","sunday":"미운영","sample":"○"},
{"no":"188","sido":"경기","name":"김포우리병원","address":"경기도 김포시 감암로 11 김포우리병원 (걸포동)","lng":"126.710702","lat":"37.6323078","callnum":"031-999-1000","monday":"09:00 ~ 17:30","tuesday":"09:00 ~ 17:30","wednesday":"09:30 ~ 17:30","thursday":"09:30 ~ 17:30","friday":"09:00 ~ 17:30","saturday":"09:00 ~ 13:00","sunday":"미운영","sample":"○"},
{"no":"189","sido":"경기","name":"김포시보건소","address":"경기도 김포시 사우중로 108  (사우동)","lng":"126.7225146","lat":"37.623264","callnum":"031-980-5036","monday":"09:00 ~ 18:00","tuesday":"09:00 ~ 18:00","wednesday":"09:00 ~ 18:00","thursday":"09:00 ~ 19:00","friday":"09:00 ~ 18:00","saturday":"09:00 ~ 18:00","sunday":"09:00 ~ 18:00","sample":"○"},
{"no":"190","sido":"경기","name":"한강아이제일병원","address":"경기도 김포시 김포한강11로 133 중앙프라자 235층 (운양동)","lng":"126.681382","lat":"37.645769","callnum":"031-8048-7575","monday":"08:00 ~ 21:00","tuesday":"08:00 ~ 21:00","wednesday":"08:00 ~ 21:00","thursday":"08:00 ~ 21:00","friday":"08:00 ~ 21:00","saturday":"09:00 ~ 18:00","sunday":"09:00 ~ 18:00","sample":"○"},
{"no":"191","sido":"경기","name":"김포아이제일병원","address":"경기도 김포시 김포한강8로 382 고은메디타원 678층 (구래동)","lng":"126.6266137","lat":"37.6435583","callnum":"031-8083-7575","monday":"08:00 ~ 21:00","tuesday":"08:00 ~ 21:00","wednesday":"08:00 ~ 21:00","thursday":"08:00 ~ 21:00","friday":"08:00 ~ 21:00","saturday":"09:00 ~ 18:00","sunday":"09:00 ~ 18:00","sample":"○"},
{"no":"192","sido":"경기","name":"남양주보건소","address":"경기도 남양주시 경춘로 522  (다산동)","lng":"127.171183","lat":"37.6102751","callnum":"031-590-0967","monday":"미운영","tuesday":"미운영","wednesday":"미운영","thursday":"09:00 ~ 18:00","friday":"미운영","saturday":"미운영","sunday":"미운영","sample":"○"},
{"no":"193","sido":"경기","name":"남양주풍양보건소","address":"경기도 남양주시 진접읍 해밀예당1로 30-39 남양주풍양보건소 ","lng":"127.1894619","lat":"37.7105071","callnum":"031-590-6986","monday":"09:00 ~ 18:00","tuesday":"09:00 ~ 18:00","wednesday":"09:00 ~ 18:00","thursday":"09:00 ~ 18:00","friday":"09:00 ~ 18:00","saturday":"미운영","sunday":"09:00 ~ 18:00","sample":"○"},
{"no":"194","sido":"경기","name":"현대병원","address":"경기도 남양주시 진접읍 봉현로 21","lng":"127.1798922","lat":"37.7154237","callnum":"031-574-9118","monday":"08:30 ~ 17:00","tuesday":"08:30 ~ 17:00","wednesday":"08:30 ~ 17:00","thursday":"08:30 ~ 17:00","friday":"08:30 ~ 17:00","saturday":"08:30 ~ 13:00","sunday":"미운영","sample":"○"},
{"no":"195","sido":"경기","name":"아이맘어린이병원","address":"경기도 남양주시 다산중앙로 105-8 다산동 3~5층 (다산동)","lng":"127.1529198","lat":"37.6227149","callnum":"031-563-9999","monday":"09:00 ~ 23:00","tuesday":"09:00 ~ 19:00","wednesday":"09:00 ~ 23:00","thursday":"09:00 ~ 19:00","friday":"09:00 ~ 23:00","saturday":"09:00 ~ 18:00","sunday":"09:30 ~ 13:00","sample":"X"},
{"no":"196","sido":"경기","name":"원미보건소","address":"경기도 부천시 길주로 486 부천종합운동장 부설주차장 C동","lng":"126.7966743","lat":"37.50496688","callnum":"032-625-9486","monday":"10:00 ~ 17:00","tuesday":"10:00 ~ 17:00","wednesday":"10:00 ~ 17:00","thursday":"10:00 ~ 17:00","friday":"10:00 ~ 17:00","saturday":"미운영","sunday":"미운영","sample":"○"},
{"no":"197","sido":"경기","name":"부천우리병원","address":"경기도 부천시 소사로 726 지하4층~지상5층 (원종동)","lng":"126.8052028","lat":"37.5208642","callnum":"032-672-4100","monday":"09:30 ~ 17:30","tuesday":"09:30 ~ 17:30","wednesday":"09:30 ~ 17:30","thursday":"09:30 ~ 17:30","friday":"09:30 ~ 17:30","saturday":"09:30 ~ 12:30","sunday":"미운영","sample":"○"},
{"no":"198","sido":"경기","name":"오정보건소","address":"경기도 부천시 성오로 172  (오정동)","lng":"126.7962865","lat":"37.528036","callnum":"032-625-8637","monday":"09:30 ~ 12:00","tuesday":"09:30 ~ 12:00","wednesday":"09:30 ~ 12:00","thursday":"09:30 ~ 12:00","friday":"09:30 ~ 12:00","saturday":"미운영","sunday":"미운영","sample":"X"},
{"no":"199","sido":"경기","name":"소사보건소","address":"경기도 부천시 경인옛로 73 소사어울마당 지상주차장 (소사본동)","lng":"126.7999512","lat":"37.4800483","callnum":"032-625-8871","monday":"14:00 ~ 17:00","tuesday":"14:00 ~ 17:00","wednesday":"14:00 ~ 17:00","thursday":"14:00 ~ 17:00","friday":"14:00 ~ 17:00","saturday":"미운영","sunday":"미운영","sample":"○"},
{"no":"200","sido":"경기","name":"다니엘종합병원","address":"경기도 부천시 중동로 361 다니엘종합병원 (약대동)","lng":"126.7694717","lat":"37.512307","callnum":"032-670-0001","monday":"10:00 ~ 16:00","tuesday":"10:00 ~ 16:00","wednesday":"10:00 ~ 16:00","thursday":"10:00 ~ 16:00","friday":"10:00 ~ 16:00","saturday":"미운영","sunday":"미운영","sample":"○"},
{"no":"201","sido":"경기","name":"수정구보건소","address":"경기도 성남시 수정구 수정로 218","lng":"127.1440624","lat":"37.4443958","callnum":"031-729-3863","monday":"09:00 ~ 17:00","tuesday":"09:00 ~ 17:00","wednesday":"09:00 ~ 17:00","thursday":"09:00 ~ 17:00","friday":"09:00 ~ 17:00","saturday":"미운영","sunday":"미운영","sample":"○"},
{"no":"202","sido":"경기","name":"성남중앙병원","address":"경기도 성남시 중원구 산성대로476번길 12 (금광동)","lng":"127.1620202","lat":"37.4524899","callnum":"031-743-3000","monday":"09:00 ~ 17:00","tuesday":"09:00 ~ 17:00","wednesday":"09:00 ~ 17:00","thursday":"09:00 ~ 17:00","friday":"09:00 ~ 17:00","saturday":"09:00 ~ 12:30","sunday":"미운영","sample":"○"},
{"no":"203","sido":"경기","name":"성남시중원구보건소","address":"경기도 성남시 중원구 금상로 137 중원구보건소 (상대원동)","lng":"127.1707037","lat":"37.4419636","callnum":"031-729-3922","monday":"09:00 ~ 17:00","tuesday":"09:00 ~ 17:00","wednesday":"09:00 ~ 17:00","thursday":"09:00 ~ 17:00","friday":"09:00 ~ 17:00","saturday":"미운영","sunday":"미운영","sample":"○"},
{"no":"204","sido":"경기","name":"정병원","address":"경기도 성남시 수정구 수정로 76 지하3~10층 (수진동)","lng":"127.1290286","lat":"37.4397987","callnum":"031-757-8900","monday":"08:30 ~ 17:30","tuesday":"08:30 ~ 17:30","wednesday":"08:30 ~ 17:30","thursday":"08:30 ~ 17:30","friday":"08:30 ~ 17:30","saturday":"08:30 ~ 12:30","sunday":"미운영","sample":"○"},
{"no":"205","sido":"경기","name":"성남시의료원","address":"경기도 성남시 수정구 수정로171번길 10 성남시의료원 (태평동)","lng":"127.1390402","lat":"37.4447828","callnum":"031-738-7801","monday":"09:00 ~ 12:00","tuesday":"09:00 ~ 12:00","wednesday":"09:00 ~ 12:00","thursday":"09:00 ~ 12:00","friday":"09:00 ~ 12:00","saturday":"미운영","sunday":"미운영","sample":"○"},
{"no":"206","sido":"경기","name":"성남시분당구보건소","address":"경기도 성남시 분당구 양현로 306 분당구보건소 (야탑동)","lng":"127.1246846","lat":"37.4110766","callnum":"031-729-3990","monday":"15:00 ~ 17:00","tuesday":"15:00 ~ 17:00","wednesday":"15:00 ~ 17:00","thursday":"15:00 ~ 17:00","friday":"15:00 ~ 17:00","saturday":"미운영","sunday":"미운영","sample":"○"},
{"no":"207","sido":"경기","name":"분당성모이비인후과의원","address":"경기도 성남시 분당구 정자일로 100 2층 206 207호 (정자동 미켈란쉐르빌)","lng":"127.1073666","lat":"37.358766","callnum":"031-712-9075","monday":"09:00 ~ 19:00","tuesday":"09:00 ~ 19:00","wednesday":"09:00 ~ 19:00","thursday":"09:00 ~ 19:00","friday":"09:00 ~ 19:00","saturday":"09:00 ~ 15:00","sunday":"미운영","sample":"X"},
{"no":"208","sido":"경기","name":"화홍병원","address":"경기도 수원시 권선구 호매실로90번길 98 (호매실동)","lng":"126.9638921","lat":"37.2601451","callnum":"031-278-0119","monday":"09:00 ~ 17:00","tuesday":"09:00 ~ 17:00","wednesday":"09:00 ~ 17:00","thursday":"09:00 ~ 17:00","friday":"09:00 ~ 17:00","saturday":"미운영","sunday":"미운영","sample":"○"},
{"no":"209","sido":"경기","name":"최소아청소년과의원","address":"경기도 시흥시 진말로9번길 2 2층 203호 (장곡동 부석프라자)","lng":"126.7852674","lat":"37.378477","callnum":"031-503-7533","monday":"미운영","tuesday":"18:00 ~ 19:00","wednesday":"18:00 ~ 19:00","thursday":"18:00 ~ 19:00","friday":"18:00 ~ 19:00","saturday":"미운영","sunday":"미운영","sample":"X"},
{"no":"210","sido":"경기","name":"문소아과의원","address":"경기도 시흥시 은행로 130 2층 (은행동 은행프라자)","lng":"126.8000057","lat":"37.4426918","callnum":"031-315-0029","monday":"미운영","tuesday":"18:00 ~ 19:00","wednesday":"18:00 ~ 19:00","thursday":"18:00 ~ 19:00","friday":"미운영","saturday":"미운영","sunday":"미운영","sample":"X"},
{"no":"211","sido":"경기","name":"신성철소아과의원","address":"경기도 시흥시 비둘기공원7길 18 3층 (대야동 하나골드)","lng":"126.7931071","lat":"37.4444236","callnum":"031-311-4265","monday":"미운영","tuesday":"12:00 ~ 13:00","wednesday":"12:00 ~ 13:00","thursday":"미운영","friday":"12:00 ~ 13:00","saturday":"미운영","sunday":"미운영","sample":"X"},
{"no":"212","sido":"경기","name":"마음속내과의원","address":"경기도 시흥시 정왕대로 230 제일프라자 202-1203204305호 (정왕동)","lng":"126.7385197","lat":"37.3449462","callnum":"031-506-7000","monday":"17:30 ~ 18:30","tuesday":"17:30 ~ 18:30","wednesday":"17:30 ~ 18:30","thursday":"17:30 ~ 18:30","friday":"17:30 ~ 18:30","saturday":"13:00 ~ 14:00","sunday":"미운영","sample":"X"},
{"no":"213","sido":"경기","name":"신천한솔의원","address":"경기도 시흥시 신천로80번길 2 신천메디칼센타 1~4층 (신천동)","lng":"126.786318","lat":"37.4372539","callnum":"031-312-3112","monday":"18:00 ~ 19:00","tuesday":"18:00 ~ 19:00","wednesday":"18:00 ~ 19:00","thursday":"18:00 ~ 19:00","friday":"18:00 ~ 19:00","saturday":"14:00 ~ 15:00","sunday":"미운영","sample":"X"},
{"no":"214","sido":"경기","name":"녹향의원","address":"경기도 시흥시 하중로 127 (하중동)","lng":"126.8004263","lat":"37.3993379","callnum":"031-310-5700","monday":"09:00 ~ 18:00","tuesday":"09:00 ~ 18:00","wednesday":"09:00 ~ 18:00","thursday":"09:00 ~ 18:00","friday":"09:00 ~ 18:00","saturday":"09:00 ~ 13:00","sunday":"미운영","sample":"X"},
{"no":"215","sido":"경기","name":"목감연세내과의원","address":"경기도 시흥시 목감남서로 9-19 401402호 (조남동)","lng":"126.8527532","lat":"37.3777814","callnum":"031-411-0818","monday":"16:30 ~ 17:30","tuesday":"16:30 ~ 17:30","wednesday":"16:30 ~ 17:30","thursday":"16:30 ~ 17:30","friday":"16:30 ~ 17:30","saturday":"13:00 ~ 14:00","sunday":"미운영","sample":"X"},
{"no":"216","sido":"경기","name":"시흥시보건소 정왕보건지소","address":"경기도 시흥시 정왕대로233번길 19  (정왕동)","lng":"126.7401276","lat":"37.3466573","callnum":"031-310-5901","monday":"09:00 ~ 18:00","tuesday":"09:00 ~ 18:00","wednesday":"09:00 ~ 18:00","thursday":"09:00 ~ 18:00","friday":"09:00 ~ 18:00","saturday":"09:00 ~ 13:00","sunday":"미운영","sample":"○"},
{"no":"217","sido":"경기","name":"시흥시보건소","address":"경기도 시흥시 호현로 55 시흥시보건소 (대야동)","lng":"126.7850894","lat":"37.4454498","callnum":"031-310-5815","monday":"09:00 ~ 18:00","tuesday":"09:00 ~ 18:00","wednesday":"09:00 ~ 18:00","thursday":"09:00 ~ 18:00","friday":"09:00 ~ 18:00","saturday":"미운영","sunday":"미운영","sample":"○"},
{"no":"218","sido":"경기","name":"신천연합병원","address":"경기도 시흥시 복지로 57 복지로 61 2층 (대야동)","lng":"126.7893762","lat":"37.4445206","callnum":"031-310-6300","monday":"08:00 ~ 22:00","tuesday":"08:00 ~ 22:00","wednesday":"08:00 ~ 22:00","thursday":"08:00 ~ 22:00","friday":"08:00 ~ 22:00","saturday":"08:00 ~ 22:00","sunday":"08:00 ~ 22:00","sample":"○"},
{"no":"219","sido":"경기","name":"시화병원","address":"경기도 시흥시 군자천로 381 시화병원 (정왕동)","lng":"126.7369686","lat":"37.3499575","callnum":"1811-7000","monday":"08:30 ~ 17:30","tuesday":"08:30 ~ 17:30","wednesday":"08:30 ~ 17:30","thursday":"08:30 ~ 17:30","friday":"08:30 ~ 17:30","saturday":"08:30 ~ 12:30","sunday":"미운영","sample":"○"},
{"no":"220","sido":"경기","name":"센트럴병원","address":"경기도 시흥시 공단1대로 237 (정왕동 센트럴 병원)","lng":"126.728196","lat":"37.3367442","callnum":"031-8041-3000","monday":"09:00 ~ 16:00","tuesday":"09:00 ~ 16:00","wednesday":"09:00 ~ 16:00","thursday":"09:00 ~ 16:00","friday":"09:00 ~ 16:00","saturday":"09:00 ~ 11:00","sunday":"미운영","sample":"○"},
{"no":"221","sido":"경기","name":"사랑의병원","address":"경기도 안산시 상록구 예술광장로 69 사랑의병원 (성포동)","lng":"126.8447923","lat":"37.3270104","callnum":"031-439-3000","monday":"09:00 ~ 18:00","tuesday":"09:00 ~ 17:30","wednesday":"09:00 ~ 17:30","thursday":"09:00 ~ 17:30","friday":"09:00 ~ 17:30","saturday":"09:00 ~ 13:00","sunday":"00:00 ~ 24:00","sample":"○"},
{"no":"222","sido":"경기","name":"근로복지공단안산병원","address":"경기도 안산시 상록구 구룡로 87 근로복지공단안산병원 (일동)","lng":"126.874565","lat":"37.3166918","callnum":"031-500-1114","monday":"08:30 ~ 17:30","tuesday":"08:30 ~ 17:30","wednesday":"08:30 ~ 17:30","thursday":"08:30 ~ 17:30","friday":"08:30 ~ 17:30","saturday":"미운영","sunday":"미운영","sample":"○"},
{"no":"223","sido":"경기","name":"온누리병원","address":"경기도 안산시 단원구 선부로 201 (선부동)","lng":"126.8175235","lat":"37.3419328","callnum":"031-412-2200","monday":"09:00 ~ 17:00","tuesday":"09:00 ~ 17:00","wednesday":"09:00 ~ 17:00","thursday":"09:00 ~ 17:00","friday":"09:00 ~ 17:00","saturday":"09:00 ~ 17:00","sunday":"미운영","sample":"○"},
{"no":"224","sido":"경기","name":"단원병원","address":"경기도 안산시 단원구 원포공원1로 20 동의성단원병원 (초지동)","lng":"126.8132814","lat":"37.3002344","callnum":"031-8040-6600","monday":"09:30 ~ 17:30","tuesday":"09:30 ~ 17:30","wednesday":"09:30 ~ 17:30","thursday":"09:30 ~ 17:30","friday":"09:30 ~ 17:30","saturday":"09:30 ~ 12:30","sunday":"미운영","sample":"○"},
{"no":"225","sido":"경기","name":"동안산병원","address":"경기도 안산시 상록구 월피로 88 (월피동)","lng":"126.8530765","lat":"37.3357682","callnum":"031-410-1116","monday":"09:00 ~ 17:30","tuesday":"00:00 ~ 23:59","wednesday":"00:00 ~ 23:59","thursday":"00:00 ~ 23:59","friday":"00:00 ~ 23:59","saturday":"09:00 ~ 17:30","sunday":"00:00 ~ 23:59","sample":"○"},
{"no":"226","sido":"경기","name":"경기도의료원 안성병원","address":"경기도 안성시 남파로 95 (당왕동)","lng":"127.2603654","lat":"37.0173543","callnum":"031-8046-5000","monday":"09:00 ~ 17:00","tuesday":"09:00 ~ 17:00","wednesday":"09:00 ~ 17:00","thursday":"09:00 ~ 17:00","friday":"09:00 ~ 17:00","saturday":"미운영","sunday":"미운영","sample":"○"},
{"no":"227","sido":"경기","name":"안성시보건소","address":"경기도 안성시 강변로74번길 18","lng":"127.2697894","lat":"37.0002009","callnum":"031-678-5724","monday":"09:00 ~ 18:00","tuesday":"09:00 ~ 18:00","wednesday":"09:00 ~ 18:00","thursday":"09:00 ~ 18:00","friday":"09:00 ~ 18:00","saturday":"미운영","sunday":"미운영","sample":"○"},
{"no":"228","sido":"경기","name":"안성성모병원","address":"경기도 안성시 시장길 58 (서인동)","lng":"127.2708901","lat":"37.0061192","callnum":"031-675-6007","monday":"09:00 ~ 17:00","tuesday":"09:00 ~ 17:00","wednesday":"09:00 ~ 17:00","thursday":"09:00 ~ 17:00","friday":"09:00 ~ 17:00","saturday":"09:00 ~ 12:00","sunday":"미운영","sample":"○"},
{"no":"229","sido":"경기","name":"안양시동안구보건소","address":"경기도 안양시 동안구 평촌대로253번길 41  (비산동)","lng":"126.9515761","lat":"37.3928995","callnum":"031-8045-6779","monday":"14:00 ~ 17:00","tuesday":"14:00 ~ 17:00","wednesday":"14:00 ~ 17:00","thursday":"14:00 ~ 17:00","friday":"14:00 ~ 17:00","saturday":"미운영","sunday":"미운영","sample":"○"},
{"no":"230","sido":"경기","name":"안양시만안구보건소","address":"경기도 안양시 만안구 문예로 48 안양시만안구보건소 (안양동)","lng":"126.932929","lat":"37.3858576","callnum":"031-8045-3109","monday":"미운영","tuesday":"미운영","wednesday":"미운영","thursday":"미운영","friday":"09:00 ~ 12:00","saturday":"미운영","sunday":"미운영","sample":"○"},
{"no":"231","sido":"경기","name":"안양샘병원","address":"경기도 안양시 만안구 삼덕로 9 (안양동 안양샘병원)","lng":"126.924684","lat":"37.3930905","callnum":"031-467-9717","monday":"08:30 ~ 17:30","tuesday":"08:30 ~ 17:30","wednesday":"08:30 ~ 17:30","thursday":"08:30 ~ 17:30","friday":"08:30 ~ 17:30","saturday":"08:30 ~ 12:30","sunday":"미운영","sample":"○"},
{"no":"232","sido":"경기","name":"양주시보건소","address":"경기도 양주시 부흥로 1459 0 (유양동)","lng":"127.0372632","lat":"37.78486521","callnum":"031-8082-7083","monday":"10:00 ~ 12:00","tuesday":"미운영","wednesday":"10:00 ~ 12:00","thursday":"미운영","friday":"10:00 ~ 12:00","saturday":"미운영","sunday":"미운영","sample":"○"},
{"no":"233","sido":"경기","name":"양주예쓰병원","address":"경기도 양주시 회정로 103-103 (덕정동)","lng":"127.064607","lat":"37.837757","callnum":"031-825-5000","monday":"미운영","tuesday":"14:00 ~ 17:00","wednesday":"미운영","thursday":"14:00 ~ 17:00","friday":"미운영","saturday":"미운영","sunday":"미운영","sample":"○"},
{"no":"234","sido":"경기","name":"양평군보건소","address":"경기도 양평군 양평읍 마유산로 17","lng":"127.4866647","lat":"37.4970119","callnum":"031-770-3524","monday":"09:00 ~ 18:00","tuesday":"09:00 ~ 18:00","wednesday":"09:00 ~ 18:00","thursday":"09:00 ~ 18:00","friday":"09:00 ~ 18:00","saturday":"미운영","sunday":"미운영","sample":"○"},
{"no":"235","sido":"경기","name":"서울어린이병원","address":"경기도 오산시 경기대로 209 (원동)","lng":"127.0730052","lat":"37.1434385","callnum":"031-375-4197","monday":"08:00 ~ 21:00","tuesday":"08:00 ~ 21:00","wednesday":"08:00 ~ 21:00","thursday":"08:00 ~ 21:00","friday":"08:00 ~ 21:00","saturday":"08:00 ~ 18:00","sunday":"08:00 ~ 17:00","sample":"○"},
{"no":"236","sido":"경기","name":"365종합의원","address":"경기도 오산시 경기대로 133 오렌지팩토리아울렛 1층 (원동)","lng":"127.0728164","lat":"37.1367778","callnum":"031-378-0365","monday":"09:00 ~ 17:00","tuesday":"09:00 ~ 17:00","wednesday":"09:00 ~ 17:00","thursday":"09:00 ~ 17:00","friday":"09:00 ~ 17:00","saturday":"09:00 ~ 17:00","sunday":"09:00 ~ 17:00","sample":"○"},
{"no":"237","sido":"경기","name":"오산한국병원","address":"경기도 오산시 밀머리로1번길 16 (원동)","lng":"127.075507","lat":"37.1413494","callnum":"031-379-8300","monday":"09:00 ~ 18:00","tuesday":"09:00 ~ 18:00","wednesday":"09:00 ~ 18:00","thursday":"09:00 ~ 18:00","friday":"09:00 ~ 18:00","saturday":"09:00 ~ 13:00","sunday":"미운영","sample":"○"},
{"no":"238","sido":"경기","name":"웰봄병원","address":"경기도 오산시 경기대로 534","lng":"127.0640704","lat":"37.1706267","callnum":"031-373-7585","monday":"09:00 ~ 18:00","tuesday":"09:00 ~ 18:00","wednesday":"09:00 ~ 18:00","thursday":"09:00 ~ 18:00","friday":"09:00 ~ 18:00","saturday":"09:00 ~ 13:00","sunday":"미운영","sample":"X"},
{"no":"239","sido":"경기","name":"제일메디플러스의원","address":"경기도 용인시 처인구 포곡읍 포곡로 113","lng":"127.2178647","lat":"37.2698538","callnum":"031-322-7582","monday":"09:00 ~ 18:00","tuesday":"09:00 ~ 18:00","wednesday":"09:00 ~ 18:00","thursday":"09:00 ~ 18:00","friday":"09:00 ~ 18:00","saturday":"09:00 ~ 13:00","sunday":"미운영","sample":"○"},
{"no":"240","sido":"경기","name":"다보스병원","address":"경기도 용인시 처인구 백옥대로1082번길 18 다보스종합병원 (김량장동)","lng":"127.2113646","lat":"37.2314508","callnum":"031-8021-2000","monday":"09:00 ~ 17:00","tuesday":"09:00 ~ 17:00","wednesday":"09:00 ~ 17:00","thursday":"09:00 ~ 17:00","friday":"09:00 ~ 17:00","saturday":"미운영","sunday":"미운영","sample":"○"},
{"no":"241","sido":"경기","name":"용인서울병원","address":"경기도 용인시 처인구 고림로 81 (고림동)","lng":"127.2145967","lat":"37.2403572","callnum":"031-337-0114","monday":"13:30 ~ 17:30","tuesday":"13:30 ~ 17:30","wednesday":"13:30 ~ 17:30","thursday":"13:30 ~ 17:30","friday":"13:30 ~ 17:30","saturday":"미운영","sunday":"미운영","sample":"○"},
{"no":"242","sido":"경기","name":"강남병원","address":"경기도 용인시 기흥구 중부대로 411 강남병원 (신갈동)","lng":"127.1115733","lat":"37.2737805","callnum":"031-300-0114","monday":"08:30 ~ 17:30","tuesday":"08:30 ~ 17:30","wednesday":"08:30 ~ 17:30","thursday":"08:30 ~ 17:30","friday":"08:30 ~ 17:30","saturday":"08:30 ~ 12:30","sunday":"미운영","sample":"○"},
{"no":"243","sido":"경기","name":"시티병원","address":"경기도 의왕시 오전천로 29","lng":"126.976831","lat":"37.3502841","callnum":"031-340-0114","monday":"10:00 ~ 12:00","tuesday":"10:00 ~ 12:00","wednesday":"10:00 ~ 12:00","thursday":"10:00 ~ 12:00","friday":"10:00 ~ 12:00","saturday":"10:00 ~ 12:00","sunday":"미운영","sample":"○"},
{"no":"244","sido":"경기","name":"튼튼어린이병원","address":"경기도 의정부시 평화로 647 미건메디컬프라자 지하123층","lng":"127.0446262","lat":"37.749725","callnum":"031-951-7500","monday":"09:00 ~ 17:30","tuesday":"09:00 ~ 17:30","wednesday":"09:00 ~ 17:30","thursday":"09:00 ~ 17:30","friday":"09:00 ~ 17:30","saturday":"09:00 ~ 17:30","sunday":"미운영","sample":"X"},
{"no":"245","sido":"경기","name":"추병원","address":"경기도 의정부시 평화로 650 (의정부동)","lng":"127.0451367","lat":"37.7497291","callnum":"031-845-7777","monday":"09:30 ~ 17:30","tuesday":"09:30 ~ 17:30","wednesday":"09:30 ~ 17:30","thursday":"09:30 ~ 17:30","friday":"09:30 ~ 17:30","saturday":"09:30 ~ 12:00","sunday":"미운영","sample":"○"},
{"no":"246","sido":"경기","name":"의정부백병원","address":"경기도 의정부시 금신로 322 (신곡동)","lng":"127.0620316","lat":"37.7453507","callnum":"031-856-8111","monday":"08:30 ~ 17:30","tuesday":"08:30 ~ 17:30","wednesday":"08:30 ~ 17:30","thursday":"08:30 ~ 17:30","friday":"08:30 ~ 17:30","saturday":"08:30 ~ 13:00","sunday":"미운영","sample":"○"},
{"no":"247","sido":"경기","name":"의정부성모병원","address":"경기도 의정부시 천보로 271 의정부성모병원 (금오동)","lng":"127.0779677","lat":"37.7586493","callnum":"1661-7500","monday":"08:00 ~ 21:00","tuesday":"08:00 ~ 21:00","wednesday":"08:00 ~ 21:00","thursday":"08:00 ~ 21:00","friday":"08:00 ~ 21:00","saturday":"08:00 ~ 18:00","sunday":"08:00 ~ 17:00","sample":"○"},
{"no":"248","sido":"경기","name":"경기도의료원 의정부병원","address":"경기도 의정부시 흥선로 142 (의정부동)","lng":"127.0426377","lat":"37.7411222","callnum":"031-828-5000","monday":"08:30 ~ 17:30","tuesday":"08:30 ~ 17:30","wednesday":"08:30 ~ 17:30","thursday":"08:30 ~ 17:30","friday":"08:30 ~ 17:30","saturday":"미운영","sunday":"미운영","sample":"○"},
{"no":"249","sido":"경기","name":"이천엘리야병원","address":"경기도 이천시 장호원읍 서동대로 8793","lng":"127.612083","lat":"37.1154566","callnum":"031-642-8871","monday":"09:00 ~ 17:00","tuesday":"09:00 ~ 17:00","wednesday":"09:00 ~ 17:00","thursday":"09:00 ~ 17:00","friday":"09:00 ~ 17:00","saturday":"미운영","sunday":"미운영","sample":"○"},
{"no":"250","sido":"경기","name":"경기도의료원 이천병원","address":"경기도 이천시 경충대로 2742 (관고동)","lng":"127.4327078","lat":"37.2826844","callnum":"031-630-4200","monday":"08:30 ~ 17:30","tuesday":"08:30 ~ 17:30","wednesday":"08:30 ~ 17:30","thursday":"08:30 ~ 17:30","friday":"08:30 ~ 17:30","saturday":"미운영","sunday":"미운영","sample":"○"},
{"no":"251","sido":"경기","name":"메디인병원","address":"경기도 파주시 시청로 6","lng":"126.7747973","lat":"37.7580498","callnum":"031-943-1191","monday":"09:00 ~ 18:00","tuesday":"09:00 ~ 18:00","wednesday":"09:00 ~ 18:00","thursday":"09:00 ~ 18:00","friday":"09:00 ~ 18:00","saturday":"09:00 ~ 13:00","sunday":"미운영","sample":"○"},
{"no":"252","sido":"경기","name":"파주미래아동병원","address":"경기도 파주시 와석순환로 133 56층 (동패동 형성프라자)","lng":"126.745136","lat":"37.7121384","callnum":"070-4702-2500","monday":"09:00 ~ 18:00","tuesday":"09:00 ~ 18:00","wednesday":"09:00 ~ 18:00","thursday":"09:00 ~ 18:00","friday":"09:00 ~ 18:00","saturday":"09:00 ~ 18:00","sunday":"09:00 ~ 18:00","sample":"X"},
{"no":"253","sido":"경기","name":"경기도의료원파주병원","address":"경기도 파주시 중앙로 207 경기도립의료원파주병원 (금촌동)","lng":"126.7798547","lat":"37.7548407","callnum":"031-940-9100","monday":"08:30 ~ 17:30","tuesday":"08:30 ~ 17:30","wednesday":"08:30 ~ 17:30","thursday":"08:30 ~ 17:30","friday":"08:30 ~ 17:30","saturday":"미운영","sunday":"미운영","sample":"○"},
{"no":"254","sido":"경기","name":"포천시보건소","address":"경기도 포천시 포천로 1612 포천시보건소 (신읍동)","lng":"127.201197","lat":"37.9006022","callnum":"031-538-3653","monday":"미운영","tuesday":"09:00 ~ 12:00","wednesday":"미운영","thursday":"미운영","friday":"미운영","saturday":"미운영","sunday":"미운영","sample":"○"},
{"no":"255","sido":"경기","name":"365일열린소사벌연합의원","address":"경기도 평택시 평남로 951 디에이치빌딩 12층 (비전동)","lng":"127.1034268","lat":"37.0052787","callnum":"031-692-0365","monday":"09:00 ~ 17:00","tuesday":"09:00 ~ 17:00","wednesday":"14:00 ~ 17:00","thursday":"09:00 ~ 17:00","friday":"09:00 ~ 17:00","saturday":"09:00 ~ 17:00","sunday":"09:00 ~ 17:00","sample":"○"},
{"no":"256","sido":"경기","name":"하나의원","address":"경기도 평택시 송탄로 410 2356층 (지산동)","lng":"127.0580758","lat":"37.080144","callnum":"031-663-9798","monday":"09:00 ~ 18:00","tuesday":"09:00 ~ 18:00","wednesday":"09:00 ~ 18:00","thursday":"09:00 ~ 18:00","friday":"09:00 ~ 18:00","saturday":"미운영","sunday":"미운영","sample":"X"},
{"no":"257","sido":"경기","name":"하남시 미사보건센터","address":"경기도 하남시 미사강변대로 200  (망월동)","lng":"127.1858165","lat":"37.5676583","callnum":"031-790-5555","monday":"09:00 ~ 12:00","tuesday":"09:00 ~ 12:00","wednesday":"09:00 ~ 17:00","thursday":"09:00 ~ 17:00","friday":"09:00 ~ 12:00","saturday":"미운영","sunday":"미운영","sample":"○"},
{"no":"258","sido":"경기","name":"화성디에스병원","address":"경기도 화성시 남양읍 시청로 160번길 46-13","lng":"126.825712","lat":"37.1992311","callnum":"1600-5982","monday":"09:00 ~ 17:00","tuesday":"09:00 ~ 17:00","wednesday":"09:00 ~ 17:00","thursday":"09:00 ~ 17:00","friday":"09:00 ~ 17:00","saturday":"미운영","sunday":"미운영","sample":"○"},
{"no":"259","sido":"경기","name":"센트럴아동병원","address":"경기도 화성시 동탄지성로 17","lng":"127.0722027","lat":"37.2044909","callnum":"031-8060-5000","monday":"09:00 ~ 21:00","tuesday":"09:00 ~ 21:00","wednesday":"09:00 ~ 21:00","thursday":"09:00 ~ 21:00","friday":"09:00 ~ 21:00","saturday":"09:00 ~ 13:00","sunday":"09:00 ~ 13:00","sample":"X"},
{"no":"260","sido":"경기","name":"상쾌한이비인후과의원","address":"경기도 화성시 동탄솔빛로 44 301 302호 (반송동 신성프라자)","lng":"127.072998","lat":"37.1928909","callnum":"031-8003-8275","monday":"09:00 ~ 18:30","tuesday":"09:00 ~ 18:30","wednesday":"09:00 ~ 18:30","thursday":"09:00 ~ 18:30","friday":"09:00 ~ 18:30","saturday":"09:00 ~ 15:00","sunday":"미운영","sample":"X"},
{"no":"261","sido":"경기","name":"화성중앙종합병원","address":"경기도 화성시 향남읍 발안로 5","lng":"126.9107747","lat":"37.1313537","callnum":"031-352-8114","monday":"09:00 ~ 18:00","tuesday":"09:00 ~ 17:30","wednesday":"09:00 ~ 17:30","thursday":"09:00 ~ 17:30","friday":"09:00 ~ 17:30","saturday":"09:00 ~ 13:00","sunday":"미운영","sample":"○"},
{"no":"262","sido":"경기","name":"원광종합병원","address":"경기도 화성시 화산북로 21 (송산동)","lng":"127.0080752","lat":"37.2100897","callnum":"031-8077-7200","monday":"09:00 ~ 16:00","tuesday":"09:00 ~ 16:00","wednesday":"09:00 ~ 16:00","thursday":"09:00 ~ 16:00","friday":"09:00 ~ 16:00","saturday":"09:00 ~ 11:00","sunday":"미운영","sample":"○"},
{"no":"263","sido":"경기","name":"연세이비인후과의원","address":"경기도 화성시 효행로 1073 602호 (진안동 거성프라자)","lng":"127.043958","lat":"37.2154218","callnum":"031-222-0977","monday":"09:00 ~ 19:00","tuesday":"09:00 ~ 19:00","wednesday":"09:00 ~ 19:00","thursday":"09:00 ~ 19:00","friday":"09:00 ~ 19:00","saturday":"09:00 ~ 14:00","sunday":"미운영","sample":"○"},
{"no":"264","sido":"경기","name":"동탄역아주시원한이비인후과의원","address":"경기도 화성시 동탄대로 489 우성KTX타워 304305904일부호 (오산동)","lng":"127.0982654","lat":"37.1973572","callnum":"031-377-5082","monday":"09:00 ~ 19:00","tuesday":"09:00 ~ 19:00","wednesday":"09:00 ~ 19:00","thursday":"09:00 ~ 19:00","friday":"09:00 ~ 19:00","saturday":"09:00 ~ 12:30","sunday":"10:00 ~ 12:30","sample":"○"},
{"no":"265","sido":"강원","name":"원주의료원","address":"강원도 원주시 서원대로 387","lng":"127.9486431","lat":"37.3330711","callnum":"033-760-4605","monday":"08:30 ~ 17:30","tuesday":"08:30 ~ 17:30","wednesday":"08:30 ~ 17:30","thursday":"08:30 ~ 17:30","friday":"08:30 ~ 17:30","saturday":"미운영","sunday":"미운영","sample":"○"},
{"no":"266","sido":"강원","name":"정선군보건소","address":"강원도 정선군 정선읍 녹송로 33","lng":"128.6714009","lat":"37.3799714","callnum":"033-560-2739","monday":"10:00 ~ 16:00","tuesday":"10:00 ~ 16:00","wednesday":"10:00 ~ 16:00","thursday":"10:00 ~ 16:00","friday":"10:00 ~ 16:00","saturday":"미운영","sunday":"미운영","sample":"○"},
{"no":"267","sido":"강원","name":"삼척의료원","address":"강원도 삼척시 오십천로 418 삼척의료원","lng":"129.1638963","lat":"37.4401965","callnum":"033-572-1141","monday":"09:00 ~ 12:00","tuesday":"09:00 ~ 12:00","wednesday":"09:00 ~ 12:00","thursday":"09:00 ~ 12:00","friday":"09:00 ~ 12:00","saturday":"미운영","sunday":"미운영","sample":"○"},
{"no":"268","sido":"강원","name":"춘천성심병원","address":"강원도 춘천시 삭주로 77 77","lng":"127.7400384","lat":"37.8842934","callnum":"033-240-5000","monday":"08:30 ~ 17:30","tuesday":"08:30 ~ 17:30","wednesday":"08:30 ~ 17:30","thursday":"08:30 ~ 17:30","friday":"08:30 ~ 17:30","saturday":"08:30 ~ 12:30","sunday":"미운영","sample":"○"},
{"no":"269","sido":"강원","name":"춘천시보건소","address":"강원도 춘천시 중앙로 135  (중앙로3가)","lng":"127.7202222","lat":"37.8755531","callnum":"033-245-5598","monday":"09:00 ~ 18:00","tuesday":"09:00 ~ 18:00","wednesday":"09:00 ~ 18:00","thursday":"09:00 ~ 18:00","friday":"09:00 ~ 18:00","saturday":"미운영","sunday":"미운영","sample":"○"},
{"no":"270","sido":"강원","name":"태백시보건소","address":"강원도 태백시 태백로 905 태백시보건소 (황지동)","lng":"128.992367","lat":"37.1766554","callnum":"033-550-2749","monday":"09:00 ~ 18:00","tuesday":"09:00 ~ 18:00","wednesday":"09:00 ~ 18:00","thursday":"09:00 ~ 18:00","friday":"09:00 ~ 18:00","saturday":"09:00 ~ 18:00","sunday":"09:00 ~ 18:00","sample":"○"},
{"no":"271","sido":"강원","name":"횡성군보건소","address":"강원도 횡성군 횡성읍 횡성로 379 횡성군보건소 ","lng":"127.9844407","lat":"37.4871599","callnum":"033-340-5604","monday":"09:00 ~ 12:00","tuesday":"09:00 ~ 12:00","wednesday":"09:00 ~ 12:00","thursday":"09:00 ~ 12:00","friday":"09:00 ~ 12:00","saturday":"미운영","sunday":"미운영","sample":"○"},
{"no":"272","sido":"충북","name":"괴산서부병원","address":"충청북도 괴산군 괴산읍 읍내로 259","lng":"127.792657","lat":"36.8067382","callnum":"043-834-8275","monday":"09:00 ~ 17:30","tuesday":"09:00 ~ 17:30","wednesday":"09:00 ~ 17:30","thursday":"09:00 ~ 17:30","friday":"09:00 ~ 17:30","saturday":"미운영","sunday":"미운영","sample":"○"},
{"no":"273","sido":"충북","name":"단양군보건소","address":"충청북도 단양군 단양읍 삼봉로 53","lng":"128.3502709","lat":"36.9816361","callnum":"043-422-2974","monday":"09:00 ~ 18:00","tuesday":"09:00 ~ 18:00","wednesday":"09:00 ~ 18:00","thursday":"09:00 ~ 18:00","friday":"09:00 ~ 18:00","saturday":"미운영","sunday":"미운영","sample":"○"},
{"no":"274","sido":"충북","name":"보은한양병원","address":"충청북도 보은군 보은읍 보은로 102(삼산리한양병원)","lng":"127.7182455","lat":"36.4832756","callnum":"043-544-1500","monday":"09:00 ~ 18:00","tuesday":"09:00 ~ 18:00","wednesday":"09:00 ~ 18:00","thursday":"09:00 ~ 18:00","friday":"09:00 ~ 18:00","saturday":"09:00 ~ 13:00","sunday":"미운영","sample":"○"},
{"no":"275","sido":"충북","name":"드림이비인후과의원","address":"충청북도 옥천군 옥천읍 삼금로 11 2층 (산부인과)","lng":"127.5663145","lat":"36.299606","callnum":"043-733-5800","monday":"08:00 ~ 18:30","tuesday":"08:00 ~ 18:30","wednesday":"08:00 ~ 18:30","thursday":"08:00 ~ 18:30","friday":"08:00 ~ 18:30","saturday":"08:00 ~ 14:00","sunday":"미운영","sample":"X"},
{"no":"276","sido":"충북","name":"옥천군보건소","address":"충청북도 옥천군 옥천읍 삼양로8길 10 옥천군보건소 ","lng":"127.5702866","lat":"36.3041717","callnum":"043-730-2112","monday":"09:00 ~ 16:00","tuesday":"09:00 ~ 16:00","wednesday":"09:00 ~ 16:00","thursday":"09:00 ~ 16:00","friday":"09:00 ~ 16:00","saturday":"미운영","sunday":"미운영","sample":"○"},
{"no":"277","sido":"충북","name":"금왕태성병원","address":"충청북도 음성군 금왕읍 음성로1230번길 10-0","lng":"127.5984369","lat":"36.9975052","callnum":"043-883-8800","monday":"08:30 ~ 17:30","tuesday":"08:30 ~ 17:30","wednesday":"08:30 ~ 17:30","thursday":"08:30 ~ 17:30","friday":"08:30 ~ 17:30","saturday":"08:30 ~ 12:30","sunday":"미운영","sample":"○"},
{"no":"278","sido":"충북","name":"제천서울병원","address":"충청북도 제천시 숭문로 57  (서부동)","lng":"128.2061642","lat":"37.1387287","callnum":"043-642-7606","monday":"09:00 ~ 18:00","tuesday":"09:00 ~ 18:00","wednesday":"09:00 ~ 18:00","thursday":"09:00 ~ 18:00","friday":"09:00 ~ 18:00","saturday":"09:00 ~ 18:00","sunday":"09:00 ~ 18:00","sample":"○"},
{"no":"279","sido":"충북","name":"명지병원","address":"충청북도 제천시 내토로 991 (고암동)","lng":"128.2339525","lat":"37.1635034","callnum":"043-640-8114","monday":"08:30 ~ 17:30","tuesday":"08:30 ~ 17:30","wednesday":"08:30 ~ 17:30","thursday":"08:30 ~ 17:30","friday":"08:30 ~ 17:30","saturday":"08:30 ~ 12:30","sunday":"미운영","sample":"○"},
{"no":"280","sido":"충북","name":"진천성모병원","address":"충청북도 진천군 진천읍 중앙북로 36-0 진천성모병원","lng":"127.4406031","lat":"36.8583582","callnum":"043-533-1711","monday":"00:00 ~ 24:00","tuesday":"00:00 ~ 24:00","wednesday":"00:00 ~ 24:00","thursday":"00:00 ~ 24:00","friday":"00:00 ~ 24:00","saturday":"00:00 ~ 24:00","sunday":"00:00 ~ 24:00","sample":"○"},
{"no":"281","sido":"충북","name":"증평군보건소","address":"충정북도 증평군 증평읍 보건복지로 64-1","lng":"127.5867659","lat":"36.7743442","callnum":"043-835-4268","monday":"09:00 ~ 18:00","tuesday":"09:00 ~ 18:00","wednesday":"09:00 ~ 18:00","thursday":"09:00 ~ 18:00","friday":"09:00 ~ 18:00","saturday":"미운영","sunday":"미운영","sample":"○"},
{"no":"282","sido":"충북","name":"효성병원","address":"충청북도 청주시 상당구 쇠내로 16","lng":"127.4954392","lat":"36.6244474","callnum":"043-221-5000","monday":"08:30 ~ 17:30","tuesday":"08:30 ~ 17:30","wednesday":"08:30 ~ 17:30","thursday":"08:30 ~ 17:30","friday":"08:30 ~ 17:30","saturday":"미운영","sunday":"미운영","sample":"○"},
{"no":"283","sido":"충북","name":"한국병원","address":"충청북도 청주시 상당구 단재로 106 (영운동)","lng":"127.4963756","lat":"36.61972","callnum":"043-222-7000","monday":"09:00 ~ 16:00","tuesday":"09:00 ~ 16:00","wednesday":"09:00 ~ 16:00","thursday":"09:00 ~ 16:00","friday":"09:00 ~ 16:00","saturday":"미운영","sunday":"미운영","sample":"○"},
{"no":"284","sido":"충북","name":"하나병원","address":"충청북도 청주시 흥덕구 2순환로 1262-0 하나병원","lng":"127.4305649","lat":"36.6235602","callnum":"043-230-6114","monday":"09:00 ~ 18:00","tuesday":"09:00 ~ 18:00","wednesday":"09:00 ~ 18:00","thursday":"09:00 ~ 18:00","friday":"09:00 ~ 18:00","saturday":"09:00 ~ 13:00","sunday":"미운영","sample":"○"},
{"no":"285","sido":"충북","name":"김숙자소아청소년병원","address":"충청북도 청주시 흥덕구 직지대로 745-0 김숙자소아.청소년병원","lng":"127.4754611","lat":"36.6440164","callnum":"043-263-8280","monday":"08:00 ~ 21:00","tuesday":"08:00 ~ 21:00","wednesday":"08:00 ~ 21:00","thursday":"08:00 ~ 21:00","friday":"08:00 ~ 21:00","saturday":"08:00 ~ 18:00","sunday":"08:00 ~ 18:00","sample":"○"},
{"no":"286","sido":"충북","name":"베스티안병원","address":"충청북도 청주시 흥덕구 오송읍 오송생명1로 191-0","lng":"127.3216446","lat":"36.6364268","callnum":"043-910-7575","monday":"09:00 ~ 18:00","tuesday":"09:00 ~ 18:00","wednesday":"09:00 ~ 18:00","thursday":"09:00 ~ 18:00","friday":"09:00 ~ 18:00","saturday":"09:00 ~ 18:00","sunday":"미운영","sample":"○"},
{"no":"287","sido":"충북","name":"청주시 상당보건소","address":"충청북도 청주시 상당구 남일면 단재로 480 상당보건소 ","lng":"127.5054198","lat":"36.5882516","callnum":"043-201-3100","monday":"09:00 ~ 18:00","tuesday":"09:00 ~ 18:00","wednesday":"09:00 ~ 18:00","thursday":"09:00 ~ 18:00","friday":"09:00 ~ 18:00","saturday":"09:00 ~ 18:00","sunday":"09:00 ~ 18:00","sample":"○"},
{"no":"288","sido":"충북","name":"청주성모병원","address":"충청북도 청주시 청원구 주성로 173-19  (주중동)","lng":"127.4859424","lat":"36.673937","callnum":"043-219-8000","monday":"08:30 ~ 17:30","tuesday":"08:30 ~ 12:30","wednesday":"08:30 ~ 12:30","thursday":"08:30 ~ 12:30","friday":"08:30 ~ 17:30","saturday":"미운영","sunday":"미운영","sample":"○"},
{"no":"289","sido":"충북","name":"청주시 청원보건소","address":"충청북도 청주시 청원구 오창읍 과학산업3로 238  ","lng":"127.4312927","lat":"36.7100878","callnum":"043-201-0929","monday":"09:00 ~ 12:00","tuesday":"09:00 ~ 12:00","wednesday":"09:00 ~ 12:00","thursday":"09:00 ~ 12:00","friday":"09:00 ~ 12:00","saturday":"미운영","sunday":"미운영","sample":"○"},
{"no":"290","sido":"충북","name":"청주시서원보건소","address":"충청북도 청주시 서원구 사직대로 227 서원보건소 (사직동)","lng":"127.4693982","lat":"36.6377082","callnum":"043-201-3200","monday":"09:00 ~ 18:00","tuesday":"09:00 ~ 18:00","wednesday":"09:00 ~ 18:00","thursday":"09:00 ~ 18:00","friday":"09:00 ~ 18:00","saturday":"미운영","sunday":"미운영","sample":"○"},
{"no":"291","sido":"충북","name":"흥덕구보건소","address":"충청북도 청주시 흥덕구 비하로12번길 46  (비하동)","lng":"127.426491","lat":"36.6301736","callnum":"043-201-4853","monday":"09:00 ~ 18:00","tuesday":"09:00 ~ 18:00","wednesday":"09:00 ~ 18:00","thursday":"09:00 ~ 12:00","friday":"09:00 ~ 18:00","saturday":"미운영","sunday":"미운영","sample":"○"},
{"no":"292","sido":"충북","name":"연세이비인후과의원","address":"충청북도 청주시 흥덕구 풍산로 32 1층 2층 (가경동)","lng":"127.4340884","lat":"36.6263888","callnum":"043-268-5925","monday":"09:00 ~ 19:00","tuesday":"09:00 ~ 19:00","wednesday":"09:00 ~ 19:00","thursday":"09:00 ~ 19:00","friday":"09:00 ~ 19:00","saturday":"09:00 ~ 15:00","sunday":"미운영","sample":"○"},
{"no":"293","sido":"충북","name":"아이웰어린이병원","address":"충청북도 청주시 청원구 주성로 273-0  (주성동)","lng":"127.4967264","lat":"36.6706396","callnum":"043-288-3535","monday":"08:00 ~ 23:00","tuesday":"08:00 ~ 23:00","wednesday":"08:00 ~ 23:00","thursday":"08:00 ~ 23:00","friday":"08:00 ~ 23:00","saturday":"09:00 ~ 18:00","sunday":"09:00 ~ 18:00","sample":"X"},
{"no":"294","sido":"충북","name":"서울아동병원","address":"충청북도 청주시 흥덕구 가로수로 1317  (복대동)","lng":"127.4398991","lat":"36.6330401","callnum":"043-221-1122","monday":"09:00 ~ 18:30","tuesday":"09:00 ~ 18:30","wednesday":"09:00 ~ 18:30","thursday":"09:00 ~ 18:30","friday":"09:00 ~ 18:30","saturday":"09:00 ~ 16:30","sunday":"09:00 ~ 12:30","sample":"○"},
{"no":"295","sido":"충북","name":"충주중앙병원","address":"충청북도 충주시 충인1길 60","lng":"127.9330376","lat":"36.9739693","callnum":"043-856-2100","monday":"09:00 ~ 18:00","tuesday":"09:00 ~ 18:00","wednesday":"09:00 ~ 18:00","thursday":"09:00 ~ 18:00","friday":"09:00 ~ 18:00","saturday":"09:00 ~ 13:00","sunday":"미운영","sample":"○"},
{"no":"296","sido":"충북","name":"건국대학교 충주병원","address":"충청북도 충주시 국원대로 82  (교현동)","lng":"127.9288211","lat":"36.9788872","callnum":"043-840-8200","monday":"09:00 ~ 17:00","tuesday":"09:00 ~ 17:00","wednesday":"09:00 ~ 17:00","thursday":"09:00 ~ 17:00","friday":"09:00 ~ 17:00","saturday":"09:00 ~ 12:00","sunday":"09:00 ~ 17:00","sample":"○"},
{"no":"297","sido":"충남","name":"계룡시보건소","address":"충청남도 계룡시 장안로 54  (금암동)","lng":"127.2500625","lat":"36.2730671","callnum":"042-840-3567","monday":"09:30 ~ 16:00","tuesday":"09:30 ~ 16:00","wednesday":"09:30 ~ 16:00","thursday":"09:30 ~ 16:00","friday":"09:30 ~ 16:00","saturday":"미운영","sunday":"미운영","sample":"○"},
{"no":"298","sido":"충남","name":"금산군보건소","address":"충청남도 금산군 금산읍 금산로 1559 주차장 ","lng":"127.491751","lat":"36.1119111","callnum":"041-750-4392","monday":"09:00 ~ 21:00","tuesday":"09:00 ~ 21:00","wednesday":"09:00 ~ 21:00","thursday":"09:00 ~ 21:00","friday":"09:00 ~ 21:00","saturday":"09:00 ~ 18:00","sunday":"09:00 ~ 18:00","sample":"○"},
{"no":"299","sido":"충남","name":"의료법인 백제병원","address":"충청남도 논산시 시민로294번길 14  (취암동)","lng":"127.094471","lat":"36.1924195","callnum":"041-733-2191","monday":"09:00 ~ 16:30","tuesday":"09:00 ~ 16:30","wednesday":"09:00 ~ 16:30","thursday":"09:00 ~ 16:30","friday":"09:00 ~ 16:30","saturday":"09:00 ~ 11:30","sunday":"미운영","sample":"○"},
{"no":"300","sido":"충남","name":"논산시보건소","address":"충청남도 논산시 논산대로 382 논산시보건소 (관촉동)","lng":"127.1041234","lat":"36.1961963","callnum":"041-746-8046","monday":"09:00 ~ 18:00","tuesday":"09:00 ~ 18:00","wednesday":"09:00 ~ 18:00","thursday":"09:00 ~ 18:00","friday":"09:00 ~ 18:00","saturday":"미운영","sunday":"미운영","sample":"○"},
{"no":"301","sido":"충남","name":"당진시보건소","address":"충청남도 당진시 서부로 56","lng":"126.6299607","lat":"36.8872826","callnum":"041-360-6109","monday":"09:00 ~ 18:00","tuesday":"09:00 ~ 18:00","wednesday":"09:00 ~ 18:00","thursday":"09:00 ~ 18:00","friday":"09:00 ~ 18:00","saturday":"09:00 ~ 18:00","sunday":"09:00 ~ 18:00","sample":"○"},
{"no":"302","sido":"충남","name":"보령아산병원","address":"충청남도 보령시 죽성로 136  (죽정동)","lng":"126.6236446","lat":"36.3806514","callnum":"041-930-5114","monday":"13:00 ~ 17:30","tuesday":"13:00 ~ 17:30","wednesday":"13:00 ~ 17:30","thursday":"13:00 ~ 17:30","friday":"13:00 ~ 17:30","saturday":"미운영","sunday":"미운영","sample":"○"},
{"no":"303","sido":"충남","name":"(신)제일병원","address":"충청남도 보령시 대해로 52 (궁촌동)","lng":"126.5936091","lat":"36.3435245","callnum":"041-931-8330","monday":"10:00 ~ 16:00","tuesday":"10:00 ~ 16:00","wednesday":"10:00 ~ 16:00","thursday":"10:00 ~ 16:00","friday":"10:00 ~ 16:00","saturday":"미운영","sunday":"미운영","sample":"X"},