
[
{"no":"1","sido":"대구","name":"영남대학교 병원","address":"대구광역시 남구 현충로 170","lat":"35.8475619","lng":"128.584771","callnum":"053-620-3177","weekday":"08:30 ~ 13:00","saturday":"미운영","sunday":"미운영"},
{"no":"2","sido":"대구","name":"대구의료원","address":"대구광역시 서구 평리로 157","lat":"35.8594166","lng":"128.5399827","callnum":"053-560-7575","weekday":"00:00 ~ 00:00","saturday":"00:00 ~ 00:00","sunday":"00:00 ~ 00:00"},
{"no":"3","sido":"대전","name":"대전한국병원","address":"대전광역시 동구 동서대로 1672 ","lat":"36.3481976","lng":"127.4358185","callnum":"042-606-1500","weekday":"09:00 ~ 16:00","saturday":"09:00 ~ 11:00","sunday":"09:00 ~ 11:00"},
{"no":"4","sido":"대전","name":"대전광역시 유성구보건소","address":"대전광역시 유성구 구암동(온천1동) 91-6 유성구보건소","lat":"36.3538708","lng":"127.3285721","callnum":"042-611-5000","weekday":"09:30 ~ 16:30","saturday":"09:30 ~ 11:30","sunday":"09:30 ~ 11:30"},
{"no":"5","sido":"경기","name":"경기도의료원 수원병원","address":"경기도 수원시 장안구 수성로245번길 69","lat":"37.2921094","lng":"126.9966684","callnum":"031-888-0119","weekday":"10:00 ~ 16:00","saturday":"10:00 ~ 16:00","sunday":"10:00 ~ 16:00"},
{"no":"6","sido":"경기","name":"의료법인 백송의료재단 굿모닝병원","address":"경기도 평택시 중앙로 338","lat":"36.9906551","lng":"127.1205164","callnum":"031-5182-7582","weekday":"00:00 ~ 24:00","saturday":"00:00 ~ 24:00","sunday":"00:00 ~ 24:00"},
{"no":"7","sido":"경기","name":"의료법인 양진의료재단 평택성모병원","address":"경기도 평택시 평택로 284","lat":"37.0084255","lng":"127.0743215","callnum":"031-1800-8800","weekday":"08:30 ~ 17:00","saturday":"08:30 ~ 12:30","sunday":"미운영"},
{"no":"8","sido":"충북","name":"충청북도 청주의료원","address":"충청북도 청주시 서원구 흥덕로 48","lat":"36.6404384","lng":"127.4733606","callnum":"043-279-0400","weekday":"00:00 ~ 24:00","saturday":"00:00 ~ 24:00","sunday":"00:00 ~ 24:00"},
{"no":"9","sido":"전남","name":"무안군보건소","address":"전라남도 무안군 무안읍 성동리 712-1","lat":"34.9906048","lng":"126.4815801","callnum":"061-450-5023","weekday":"09:00 ~ 18:00","saturday":"09:00 ~ 18:00","sunday":"09:00 ~ 18:00"},
{"no":"10","sido":"전남","name":"대송의료재단 무안병원","address":"전라남도 무안군 무안읍 몽탄로 65","lat":"34.9918096","lng":"126.4892797","callnum":"061-450-3119","weekday":"00:00 ~ 24:00","saturday":"00:00 ~ 24:00","sunday":"00:00 ~ 24:00"},
{"no":"11","sido":"전남","name":"영광군보건소","address":"전라남도 영광군 영광읍 남천리 326-5","lat":"35.2743304","lng":"126.5042636","callnum":"061-350-5552","weekday":"09:00 ~ 18:00","saturday":"09:00 ~ 18:00","sunday":"09:00 ~ 18:00"},
{"no":"12","sido":"전남","name":"영암군보건소","address":"전라남도 영암군 영암읍 춘양리 525 영암군보건소 ","lat":"34.7950202","lng":"126.7040528","callnum":"061-470-6580","weekday":"09:00 ~ 18:00","saturday":"09:00 ~ 18:00","sunday":"09:00 ~ 18:00"},
{"no":"13","sido":"경북","name":"김천시보건소","address":"경상북도 김천시 신음동 1284 ","lat":"36.1396859","lng":"128.1132493","callnum":"054-433-4000","weekday":"09:00 ~ 17:00","saturday":"09:00 ~ 17:00","sunday":"09:00 ~ 17:00"},
{"no":"14","sido":"경북","name":"김천제일병원","address":"경상북도 김천시 신음1길 12 ","lat":"36.1354534","lng":"128.1188209","callnum":"054-420-9300","weekday":"09:00 ~ 18:00","saturday":"09:00 ~ 13:00","sunday":"미운영"},
{"no":"15","sido":"경북","name":"문경중앙병원","address":"경상북도 문경시 중앙로 117-18 ","lat":"36.5960147","lng":"128.1990894","callnum":" 054-555-2011  ","weekday":"00:00 ~ 24:00","saturday":"00:00 ~ 24:00","sunday":"00:00 ~ 24:00"},
{"no":"16","sido":"경북","name":"성주군보건소","address":"경상북도 성주군 성주읍 성밖숲길 2","lat":"35.9176759","lng":"128.2787832","callnum":"054-930-8122","weekday":"09:00 ~ 18:00","saturday":"10:00 ~ 17:00","sunday":"10:00 ~ 17:00"},
{"no":"17","sido":"경북","name":"예천군보건소","address":"경상북도 예천군 예천읍 군청길 33, 예천군보건소","lat":"36.6575938","lng":"128.4529785","callnum":"054-650-8059","weekday":"09:00 ~ 18:00","saturday":"09:00 ~ 18:00","sunday":"09:00 ~ 18:00"}
]

