[
{"no":"1","sido":"서울","name":"강남구보건소","address":"서울특별시 강남구 삼성동(삼성2동) 8 강남구보건소","lat":"37.5163554","lng":"127.042089","callnum":"02-3423-5555","weekday":"09:00 ~ 19:00","saturday":"09:00 ~ 17:00","sunday":"09:00 ~ 17:00","sample":"○"},
{"no":"2","sido":"서울","name":"삼성서울병원","address":"서울특별시 강남구 일원로81 삼성서울특별시병원","lat":"37.488607","lng":"127.0869737","callnum":"02-3410-0543","weekday":"00:00 ~ 24:00","saturday":"00:00 ~ 24:00","sunday":"00:00 ~ 24:00","sample":"○"},
{"no":"3","sido":"서울","name":"강남세브란스병원","address":"서울특별시 강남구 언주로211 강남세브란스병원","lat":"37.4924307","lng":"127.0463186","callnum":"02-1599-6114","weekday":"09:00 ~ 17:00","saturday":"09:00 ~ 12:30","sunday":"미운영","sample":"○"},
{"no":"4","sido":"서울","name":"강동구보건소","address":"서울특별시 강동구 성내동 541-2","lat":"37.5292301","lng":"127.1255573","callnum":"02-3425-6713","weekday":"09:00 ~ 18:00","saturday":"09:00 ~ 16:00","sunday":"09:00 ~ 16:00","sample":"○"},
{"no":"5","sido":"서울","name":"중앙보훈병원","address":"서울특별시 강동구 진황도로 61길 53","lat":"37.5290867","lng":"127.1478475","callnum":"02-2225-1114","weekday":"09:00 ~ 17:30","saturday":"미운영","sunday":"미운영","sample":"○"},
{"no":"6","sido":"서울","name":"강동경희대병원","address":"서울특별시 강동구 동남로 892","lat":"37.5530328","lng":"127.1573533","callnum":"02-440-7000","weekday":"09:00 ~ 17:00","saturday":"09:00 ~ 12:00","sunday":"미운영","sample":"○"},
{"no":"7","sido":"서울","name":"강동성심병원","address":"서울특별시 강동구 성안로 150","lat":"37.5359699","lng":"127.135334","callnum":"1588-4100","weekday":"08:30 ~ 16:30","saturday":"08:30 ~ 11:30","sunday":"미운영","sample":"○"},
{"no":"8","sido":"서울","name":"강북구보건소","address":"서울특별시 강북구 번제2동 232 강북보건소","lat":"37.63221274","lng":"127.0388166","callnum":"02-901-7704.7706","weekday":"09:00 ~ 18:00","saturday":"09:00 ~ 15:00","sunday":"09:00 ~ 15:00","sample":"○"},
{"no":"9","sido":"서울","name":"강서구보건소","address":"서울특별시 강서구 염창동 275-12 강서보건소","lat":"37.5496343","lng":"126.868333","callnum":"02-2600-5465","weekday":"09:00 ~ 17:00","saturday":"09:00 ~ 14:00","sunday":"09:00 ~ 14:00","sample":"○"},
{"no":"10","sido":"서울","name":"관악구보건소","address":"서울특별시 관악구 청룡동 1570-1","lat":"37.4782648","lng":"126.9515152","callnum":"02-879-7133\/7136","weekday":"09:00 ~ 18:00","saturday":"09:00 ~ 18:00","sunday":"09:00 ~ 13:00","sample":"○"},
{"no":"11","sido":"서울","name":"에이치플러스양지병원","address":"서울특별시 관악구 남부순환로 1636","lat":"37.4841322","lng":"126.9325731","callnum":"1877-8875","weekday":"08:30 ~ 17:00","saturday":"08:30 ~ 12:30","sunday":"미운영","sample":"○"},
{"no":"12","sido":"서울","name":"광진구보건소","address":"서울특별시 광진구 자양1동 777","lat":"37.5381323","lng":"127.0827719","callnum":"02-450-7090","weekday":"09:00 ~ 18:00","saturday":"09:00 ~ 16:00","sunday":"09:00 ~ 16:00","sample":"○"},
{"no":"13","sido":"서울","name":"건국대학교병원","address":"서울특별시 광진구 능동로 120-1","lat":"37.5405799","lng":"127.0719694","callnum":"02-1588-1533","weekday":"08:30 ~ 17:00","saturday":"08:30 ~ 12:00","sunday":"미운영","sample":"○"},
{"no":"14","sido":"서울","name":"구로구보건소","address":"서울특별시 구로구 구로동(구로제5동) 109-4 구로5동 주민센터, 구로구보건소","lat":"37.5001145","lng":"126.8893246","callnum":"02-860-2012","weekday":"09:00 ~ 18:00","saturday":"09:00 ~ 16:00","sunday":"09:00 ~ 16:00","sample":"○"},
{"no":"15","sido":"서울","name":"고대구로병원","address":"서울특별시 구로구 구로동 구로동로 148","lat":"37.49224275","lng":"126.8849431","callnum":"02-2626-1554","weekday":"09:00 ~ 17:30","saturday":"미운영","sunday":"미운영","sample":"○"},
{"no":"16","sido":"서울","name":"구로성심병원","address":"서울특별시 구로구 고척1동 경인로 427","lat":"37.49970725","lng":"126.8663816","callnum":"02-2067-1500","weekday":"09:00 ~ 17:30","saturday":"09:00 ~ 12:30","sunday":"미운영","sample":"○"},
{"no":"17","sido":"서울","name":"금천구보건소","address":"서울특별시 금천구 시흥1동 1020 금천구보건소","lat":"37.4569779","lng":"126.8954185","callnum":"02-2627-2717","weekday":"09:00 ~ 18:00","saturday":"09:00 ~ 16:00","sunday":"09:00 ~ 16:00","sample":"○"},
{"no":"18","sido":"서울","name":"희명병원","address":"서울특별시 금천구 시흥대로 244","lat":"37.4556812","lng":"126.900584","callnum":"02-2219-7231","weekday":"09:00 ~ 17:00","saturday":"09:00 ~ 12:00","sunday":"09:00 ~ 17:00","sample":"○"},
{"no":"19","sido":"서울","name":"노원구보건소","address":"서울특별시 노원구 상계동 701-1 노원구보건소","lat":"37.65415699","lng":"127.0566132","callnum":"02-2116-3000","weekday":"09:00 ~ 18:00","saturday":"09:00 ~ 18:00","sunday":"13:00 ~ 17:00","sample":"○"},
{"no":"20","sido":"서울","name":"노원을지대학교병원","address":"서울특별시 노원구 한글비석로 68","lat":"37.6364346","lng":"127.0699513","callnum":"02-970-8000","weekday":"09:00 ~ 17:00","saturday":"미운영","sunday":"미운영","sample":"○"},
{"no":"21","sido":"서울","name":"상계백병원","address":"서울특별시 노원구 동일로 1342","lat":"37.6485805","lng":"127.0631253","callnum":"02-950-1114","weekday":"09:00 ~ 16:00","saturday":"미운영","sunday":"미운영","sample":"○"},
{"no":"22","sido":"서울","name":"도봉구보건소","address":"서울특별시 도봉구 쌍문동 565","lat":"37.6578818","lng":"127.0388116","callnum":"02-2091-4434","weekday":"09:00 ~ 18:00","saturday":"09:00 ~ 15:00","sunday":"09:00 ~ 15:00","sample":"○"},
{"no":"23","sido":"서울","name":"한일병원","address":"서울특별시 도봉구 우이천로 308(쌍문동)","lat":"37.6459315","lng":"127.0285858","callnum":"02-901-3114","weekday":"9:00 ~ 17:30","saturday":"미운영","sunday":"미운영","sample":"○"},
{"no":"24","sido":"서울","name":"동대문구보건소","address":"서울특별시 동대문구 용두동 39-9","lat":"37.5743642","lng":"127.0398181","callnum":"02-2127-4283","weekday":"09:00 ~ 18:00","saturday":"09:00 ~ 15:00","sunday":"09:00 ~ 15:00","sample":"○"},
{"no":"25","sido":"서울","name":"삼육서울병원","address":"서울특별시 동대문구 망우로 82","lat":"37.5881119","lng":"127.0642348","callnum":"1577-3675","weekday":"09:00 ~ 16:30","saturday":"미운영","sunday":"09:00 ~ 16:30","sample":"○"},
{"no":"26","sido":"서울","name":"서울특별시동부병원","address":"서울특별시 동대문구 무학로 124","lat":"37.5753596","lng":"127.0315184","callnum":"920-9435\/9119","weekday":"09:00 ~ 17:30","saturday":"09:00 ~ 17:30","sunday":"09:00 ~ 17:30","sample":"○"},
{"no":"27","sido":"서울","name":"서울성심병원","address":"서울특별시 동대문구 왕산로 259","lat":"37.5841854","lng":"127.0498254","callnum":"966-1616","weekday":"09:00 ~ 16:00","saturday":"미운영","sunday":"미운영","sample":"○"},
{"no":"28","sido":"서울","name":"경희의료원","address":"서울특별시 동대문구 경희대로 23","lat":"37.5948368","lng":"127.0522039","callnum":"958-8114","weekday":"08:30 ~ 16:40","saturday":"09:00 ~ 12:30","sunday":"미운영","sample":"○"},
{"no":"29","sido":"서울","name":"동작구보건소","address":"서울특별시 동작구 상도2동 176-3","lat":"37.5044193","lng":"126.9410949","callnum":"02-820-9465","weekday":"09:00 ~ 18:00","saturday":"09:00 ~ 15:00","sunday":"09:00 ~ 15:00","sample":"○"},
{"no":"30","sido":"서울","name":"서울특별시 보라매병원","address":"서울특별시 동작구 보라매로5길 20","lat":"37.4932664","lng":"126.9243576","callnum":"02-870-2114","weekday":"09:00 ~ 17:30","saturday":"09:00 ~ 12:30","sunday":"09:00 ~ 12:30","sample":"○"},
{"no":"31","sido":"서울","name":"서울특별시 중앙대학교 병원","address":"서울특별시 동작구 흑석로 102","lat":"37.506962","lng":"126.9605696","callnum":"1800-1114","weekday":"08:30 ~ 17:00","saturday":"08:30 ~ 12:00","sunday":"미운영","sample":"○"},
{"no":"32","sido":"서울","name":"마포구보건소","address":"서울특별시 마포구 성산동 370","lat":"37.5658546","lng":"126.9009476","callnum":"02-3153-9037","weekday":"09:00 ~ 18:00","saturday":"09:00 ~ 13:00","sunday":"09:00 ~ 13:00","sample":"○"},
{"no":"33","sido":"서울","name":"서대문구보건소","address":"서울특별시 서대문구 연희동  연희로242 (연희동 165-2)","lat":"37.5786216","lng":"126.9362862","callnum":"02-330-1806","weekday":"09:00 ~ 18:00","saturday":"09:00 ~ 13:00","sunday":"09:00 ~ 13:00","sample":"○"},
{"no":"34","sido":"서울","name":"세브란스병원","address":"서울특별시 서대문구 연세로 50-1","lat":"37.56242996","lng":"126.9408526","callnum":"1599-1004","weekday":"06:00 ~ 06:00","saturday":"06:00 ~ 06:00","sunday":"06:00 ~ 06:00","sample":"○"},
{"no":"35","sido":"서울","name":"서울중구보건소","address":"서울특별시 중구 신당1동 다산로39길 16 중구보건소","lat":"37.56459606","lng":"127.0150795","callnum":"02-3396-5181","weekday":"09:00 ~ 18:00","saturday":"09:00 ~ 16:00","sunday":"09:00 ~ 16:00","sample":"○"},
{"no":"36","sido":"서울","name":"인제대학교서울백병원","address":"서울특별시 중구 마른내로 9 백병원","lat":"37.5649011","lng":"126.9888329","callnum":"02-2270-0114","weekday":"00:00 ~ 00:00","saturday":"00:00 ~ 00:00","sunday":"00:00 ~ 00:00","sample":"○"},
{"no":"37","sido":"서울","name":"국립중앙의료원","address":"서울특별시 중구 광희동 을지로 245","lat":"37.56729435","lng":"127.0056535","callnum":"02-2260-7114","weekday":"00:00 ~ 00:00","saturday":"00:00 ~ 00:00","sunday":"00:00 ~ 00:00","sample":"○"},
{"no":"38","sido":"서울","name":"서초구보건소","address":"서울특별시 서초구 서초동(서초2동) 1376-3 서초구청 보건소","lat":"37.4835718","lng":"127.0328289","callnum":"02-2155-8093","weekday":"09:00 ~ 18:00","saturday":"09:00 ~ 17:00","sunday":"09:00 ~ 17:00","sample":"○"},
{"no":"39","sido":"서울","name":"가톨릭대학교 서울성모병원","address":"서울특별시 서초구 반포대로 222","lat":"37.5004919","lng":"127.0055016","callnum":"02-1588-1511","weekday":"08:00 ~ 16:30","saturday":"08:00 ~ 12:00","sunday":"미운영","sample":"○"},
{"no":"40","sido":"서울","name":"서울특별시 어린이병원","address":"서울특별시 서초구 헌릉로 260","lat":"37.4557241","lng":"127.0692211","callnum":"02-570-8000","weekday":"10:00 ~ 15:00","saturday":"미운영","sunday":"미운영","sample":"○"},
{"no":"41","sido":"서울","name":"성동구보건소","address":"서울특별시 성동구 홍익동 (왕십리도선동) 16-15 성동구보건소","lat":"37.5670751","lng":"127.0332331","callnum":"02-2286-7172","weekday":"09:00 ~ 18:00","saturday":"09:00 ~ 15:00","sunday":"09:00 ~ 15:00","sample":"○"},
{"no":"42","sido":"서울","name":"한양대학교병원","address":"서울특별시 성동구 왕십리로 222-1 (사근동)","lat":"37.5586733","lng":"127.0437999","callnum":"02-2290-8114\/8531","weekday":"00:00 ~ 24:00","saturday":"00:00 ~ 24:00","sunday":"00:00 ~ 24:00","sample":"○"},
{"no":"43","sido":"서울","name":"성동군자의원","address":"서울특별시 성동구 광나루로 323 송정빌딩 2층","lat":"37.5484539","lng":"127.0661115","callnum":"02-499-7785","weekday":"09:00 ~ 18:00","saturday":"미운영","sunday":"미운영","sample":"○"},
{"no":"44","sido":"서울","name":"성북구보건소","address":"서울특별시 성북구 월곡2동 화랑로 63 성북구보건소","lat":"37.60267233","lng":"127.0395396","callnum":"02-2241-5912","weekday":"09:00 ~ 18:00","saturday":"09:00 ~ 15:00","sunday":"09:00 ~ 15:00","sample":"○"},
{"no":"45","sido":"서울","name":"고려대학교의료원안암병원","address":"서울특별시 성북구 안암동 고려대로 73","lat":"37.58706216","lng":"127.0265455","callnum":"1577-0083","weekday":"09:00 ~ 16:00","saturday":"09:00 ~ 12:30","sunday":"미운영","sample":"○"},
{"no":"46","sido":"서울","name":"송파구보건소","address":"서울특별시 송파구 신천동 29-5 송파구청, 보건소","lat":"37.5145674","lng":"127.1059554","callnum":"02-2147-3479","weekday":"09:00 ~ 18:00","saturday":"09:00 ~ 16:00","sunday":"09:00 ~ 16:00","sample":"○"},
{"no":"47","sido":"서울","name":"서울아산병원","address":"서울특별시 송파구 풍납2동 올림픽로43길 88","lat":"37.52701559","lng":"127.1083595","callnum":"02-1688-7575","weekday":"08:00 ~ 23:00","saturday":"08:00 ~ 23:00","sunday":"08:0 ~ 23:0","sample":"○"},
{"no":"48","sido":"서울","name":"경찰병원","address":"서울특별시 송파구 가락본동 송이로 123","lat":"37.49634245","lng":"127.1234339","callnum":"02-3400-1114","weekday":"9:00 ~ 16:00","saturday":"미운영","sunday":"미운영","sample":"○"},
{"no":"49","sido":"서울","name":"양천구보건소","address":"서울특별시 양천구 신정동(신정6동) 321-5 양천보건소","lat":"37.5175811","lng":"126.866091","callnum":"02-2620-3856","weekday":"09:00 ~ 18:00","saturday":"09:00 ~ 15:00","sunday":"09:00 ~ 15:00","sample":"○"},
{"no":"50","sido":"서울","name":"이화여자대학교의과대학부속목동병원","address":"서울특별시 양천구 안양천로 1071","lat":"37.5362932","lng":"126.8866836","callnum":"1666-5000","weekday":"09:00 ~ 15:30","saturday":"미운영","sunday":"미운영","sample":"○"},
{"no":"51","sido":"서울","name":"서울특별시 서남병원","address":"서울특별시 양천구 신정이펜1로 20","lat":"37.5118445","lng":"126.8331041","callnum":"1566-6688","weekday":"09:00 ~ 18:00","saturday":"09:00 ~ 18:00","sunday":"09:00 ~ 18:00","sample":"○"},
{"no":"52","sido":"서울","name":"홍익병원","address":"서울특별시 양천구 목동로 225","lat":"37.5284873","lng":"126.8636632","callnum":"02-2693-5555","weekday":"09:00 ~ 17:00","saturday":"09:00 ~ 17:00","sunday":"미운영","sample":"○"},
{"no":"53","sido":"서울","name":"영등포구보건소","address":"서울특별시 영등포구 당산동3가(당산제1동) 385-1 영등포구청 영등포구보건소","lat":"37.5261892","lng":"126.8959184","callnum":"02-2670-4953","weekday":"09:00 ~ 18:00","saturday":"09:00 ~ 18:00","sunday":"09:00 ~ 18:00","sample":"○"},
{"no":"54","sido":"서울","name":"한림대학교 강남성심병원","address":"서울특별시 영등포구 신길로 1","lat":"37.4932758","lng":"126.908684","callnum":"1577-5587","weekday":"08:30 ~ 16:30","saturday":"08:30 ~ 11:30","sunday":"미운영","sample":"○"},
{"no":"55","sido":"서울","name":"의료법인 성애병원","address":"서울특별시 영등포구 여의대방로 53길22","lat":"37.5120882","lng":"126.9222777","callnum":"02-840-7115","weekday":"09:00 ~ 17:00","saturday":"미운영","sunday":"미운영","sample":"○"},
{"no":"56","sido":"서울","name":"가톨릭대학교 여의도성모병원","address":"서울특별시 영등포구 63로 10","lat":"37.5179441","lng":"126.9360961","callnum":"1661-7575","weekday":"08:30 ~ 16:30","saturday":"미운영","sunday":"미운영","sample":"○"},
{"no":"57","sido":"서울","name":"인봉의료재단 영등포병원","address":"서울특별시 영등포구 당산로31길 10","lat":"37.5268632","lng":"126.8957275","callnum":"010-5334-7708","weekday":"08:30 ~ 17:00","saturday":"08:30 ~ 12:00","sunday":"미운영","sample":"○"},
{"no":"58","sido":"서울","name":"용산구보건소","address":"서울특별시 용산구 이태원동 34-87","lat":"37.5325652","lng":"126.9901748","callnum":"02-2199-8373~6","weekday":"09:00 ~ 18:00","saturday":"09:00 ~ 13:00","sunday":"09:00 ~ 13:00","sample":"○"},
{"no":"59","sido":"서울","name":"순천향대학교서울병원","address":"서울특별시 용산구 대사관로 59","lat":"37.5339395","lng":"127.0045258","callnum":"02-709-9114","weekday":"08:30 ~ 17:00","saturday":"08:30 ~ 12:00","sunday":"미운영","sample":"○"},
{"no":"60","sido":"서울","name":"은평구보건소","address":"서울특별시 은평구 녹번동 84 은평구종합청사 은평구보건소","lat":"37.6026751","lng":"126.928877","callnum":"02-351-8640~1","weekday":"09:00 ~ 18:00","saturday":"09:00 ~ 13:00","sunday":"09:00 ~ 13:00","sample":"○"},
{"no":"61","sido":"서울","name":"가톨릭대학교 은평성모병원","address":"서울특별시 은평구 통일로 1021","lat":"37.6336082","lng":"126.9161518","callnum":"1811-7755","weekday":"08:30 ~ 16:30","saturday":"미운영","sunday":"미운영","sample":"○"},
{"no":"62","sido":"서울","name":"서울특별시서북병원","address":"서울특별시 은평구 갈현로7길 49","lat":"37.6041094","lng":"126.9045187","callnum":"02-3156-3022","weekday":"09:00 ~ 18:00","saturday":"09:00 ~ 12:00","sunday":"미운영","sample":"○"},
{"no":"63","sido":"서울","name":"서울특별시은평병원","address":"서울특별시 은평구 백련산로 90","lat":"37.5937792","lng":"126.9236259","callnum":"02-300-8060","weekday":"10:00 ~ 17:00","saturday":"미운영","sunday":"미운영","sample":"○"},
{"no":"64","sido":"서울","name":"의료법인 청구성심병원","address":"서울특별시 은평구 통일로 873","lat":"37.6208622","lng":"126.9194747","callnum":"350-3300","weekday":"09:00 ~ 18:00","saturday":"미운영","sunday":"10:00 ~ 17:30","sample":"○"},
{"no":"65","sido":"서울","name":"종로구보건소","address":"서울특별시 종로구 옥인동(청운효자동) 45-30 종로구보건소","lat":"37.5817609","lng":"126.9692107","callnum":"02-2148-3725","weekday":"09:00 ~ 18:00","saturday":"09:00 ~ 16:00","sunday":"09:00 ~ 16:00","sample":"○"},
{"no":"66","sido":"서울","name":"강북삼성병원","address":"서울특별시 종로구 평동 108","lat":"37.5681236","lng":"126.966614","callnum":"02-2001-1896","weekday":"07:30 ~ 17:30","saturday":"07:30 ~ 12:00","sunday":"미운영","sample":"○"},
{"no":"67","sido":"서울","name":"서울적십자병원","address":"서울특별시 종로구 평동 164","lat":"37.5675972","lng":"126.9672099","callnum":"02-2002-8650","weekday":"09:00 ~ 17:00","saturday":"미운영","sunday":"미운영","sample":"○"},
{"no":"68","sido":"서울","name":"서울대학교병원","address":"서울특별시 종로구 대학로 101(연건동)","lat":"37.5789466","lng":"126.9992172","callnum":"1588-5700","weekday":"10:00 ~ 16:00","saturday":"미운영","sunday":"미운영","sample":"○"},
{"no":"69","sido":"서울","name":"중랑구보건소","address":"서울특별시 중랑구 신내2동 662 중랑구청","lat":"37.6066268","lng":"127.092906","callnum":"02-2094-0800","weekday":"09:00 ~ 18:00","saturday":"09:00 ~ 15:00","sunday":"09:00 ~ 15:00","sample":"○"},
{"no":"70","sido":"서울","name":"서울의료원","address":"서울특별시 중랑구 신내로 156","lat":"37.6128791","lng":"127.0986633","callnum":"02-2276-8333","weekday":"09:00 ~ 17:00","saturday":"09:00 ~ 12:00","sunday":"09:00 ~ 12:00","sample":"○"},
{"no":"71","sido":"서울","name":"녹색병원","address":"서울특별시 중랑구 사가정로 49길 53","lat":"37.5835704","lng":"127.0860529","callnum":"02-490-2000","weekday":"08:30 ~ 17:30","saturday":"08:30 ~ 12:30","sunday":"미운영","sample":"○"},
{"no":"72","sido":"부산","name":"부산강서구보건소","address":"부산광역시 강서구 대저2동 1932-1 강서브라이트센터 보건소","lat":"35.1801693","lng":"128.9571923","callnum":"051-970-3415","weekday":"09:00 ~ 18:00","saturday":"9:00 ~ 18:00","sunday":"09:00 ~ 18:00","sample":"○"},
{"no":"73","sido":"부산","name":"의료법인 갑을녹산재단 갑을녹산병원","address":"부산광역시 강서구 송정동 녹산산단321로 24-8","lat":"35.09081666","lng":"128.8533037","callnum":"051-974-8449","weekday":"09:00 ~ 18:00","saturday":"09:00 ~ 17:00","sunday":"10:00 ~ 17:00","sample":"○"},
{"no":"74","sido":"부산","name":"금정구보건소","address":"부산광역시 금정구 부곡3동 78","lat":"35.2430091","lng":"129.091942","callnum":"051-519-5051","weekday":"09:00 ~ 17:00","saturday":"09:00 ~ 17:00","sunday":"09:00 ~ 17:00","sample":"○"},
{"no":"75","sido":"부산","name":"세웅병원","address":"부산광역시 금정구 서동로 162(서동)","lat":"35.2144066","lng":"129.1040799","callnum":"051-500-9700","weekday":"09:00 ~ 17:00","saturday":"09:00 ~ 12:30","sunday":"미운영","sample":"○"},
{"no":"76","sido":"부산","name":"기장군보건소","address":"부산광역시 기장군 기장읍 신천리 1번지","lat":"35.243777","lng":"129.2227771","callnum":"051-709-8614","weekday":"09:00 ~ 18:00","saturday":"09:00 ~ 18:00","sunday":"09:00 ~ 18:00","sample":"○"},
{"no":"77","sido":"부산","name":"동남권원자력의학원","address":"부산광역시 기장군 장안읍 좌동길 40","lat":"35.3214056","lng":"129.2435755","callnum":"051-720-5114","weekday":"08:30 ~ 17:30","saturday":"08:30 ~ 12:30","sunday":"미운영","sample":"○"},
{"no":"78","sido":"부산","name":"기장병원","address":"부산광역시 기장군 기장읍 대청로72번길 6","lat":"35.2358649","lng":"129.2163304","callnum":"051-723-0171","weekday":"00:00 ~ 24:00","saturday":"00:00 ~ 24:00","sunday":"00:00 ~ 24:00","sample":"○"},
{"no":"79","sido":"부산","name":"동래구보건소","address":"부산광역시 동래구 명륜2동 702-54번지","lat":"35.2113982","lng":"129.0798547","callnum":"051-555-4000","weekday":"09:00 ~ 18:00","saturday":"09:00 ~ 18:00","sunday":"09:00 ~ 18:00","sample":"○"},
{"no":"80","sido":"부산","name":"대동병원","address":"부산광역시 동래구 충렬대로187","lat":"35.2042023","lng":"129.0801767","callnum":"051-554-1233","weekday":"09:00 ~ 17:00","saturday":"09:00 ~ 12:00","sunday":"미운영","sample":"○"},
{"no":"81","sido":"부산","name":"봉생병원","address":"부산광역시 동래구 안연로109번길 27","lat":"35.1969022","lng":"129.0961123","callnum":"051-520-5510","weekday":"09:00 ~ 16:30","saturday":"미운영","sunday":"미운영","sample":"○"},
{"no":"82","sido":"부산","name":"광혜병원","address":"부산광역시 동래구 충렬대로 96","lat":"35.2068062","lng":"129.0711728","callnum":"051-503-2111","weekday":"13:30 ~ 16:00","saturday":"미운영","sunday":"미운영","sample":"○"},
{"no":"83","sido":"부산","name":"부산남구보건소","address":"부산광역시 남구 못골로 23","lat":"35.1360421","lng":"129.0849596","callnum":"051-607-6460","weekday":"09:00 ~ 18:00","saturday":"09:00 ~ 18:00","sunday":"09:00 ~ 18:00","sample":"○"},
{"no":"84","sido":"부산","name":"부산성모병원","address":"부산광역시 남구 용호로 232번길 25-14","lat":"35.1105027","lng":"129.1091924","callnum":"051-933-7119","weekday":"09:00 ~ 16:00","saturday":"09:00 ~ 12:00","sunday":"미운영","sample":"○"},
{"no":"85","sido":"부산","name":"부산동구보건소","address":"부산광역시 동구 수정동(수정제2동) 806-74 동구청 보건소","lat":"35.129296","lng":"129.0453821","callnum":"051-440-6500","weekday":"09:00 ~ 18:00","saturday":"09:00 ~ 14:00","sunday":"09:00 ~ 14:00","sample":"○"},
{"no":"86","sido":"부산","name":"좋은문화병원","address":"부산광역시 동구 범일로 119(범일동)","lat":"35.1407519","lng":"129.0589711","callnum":"051-644-2002","weekday":"09:00 ~ 17:00","saturday":"09:00 ~ 12:00","sunday":"미운영","sample":"○"},
{"no":"87","sido":"부산","name":"김원묵기념봉생병원","address":"부산광역시 동구 중앙대로 401(좌천동)","lat":"35.1309108","lng":"129.050439","callnum":"051-664-4000","weekday":"09:00 ~ 12:00","saturday":"09:00 ~ 12:00","sunday":"미운영","sample":"○"},
{"no":"88","sido":"부산","name":"부산북구보건소","address":"부산광역시 북구 화명동 1531-4","lat":"35.2392818","lng":"129.0147981","callnum":"051-309-4500","weekday":"09:00 ~ 18:00","saturday":"09:00 ~ 18:00","sunday":"09:00 ~ 18:00","sample":"○"},
{"no":"89","sido":"부산","name":"부민병원","address":"부산광역시 북구 만덕대로 59","lat":"35.2118919","lng":"129.0112061","callnum":"051-330-3000","weekday":"09:00 ~ 17:00","saturday":"09:00 ~ 13:00","sunday":"미운영","sample":"○"},
{"no":"90","sido":"부산","name":"구포성심병원","address":"부산광역시 북구 낙동대로 1786(구포동)","lat":"35.2096836","lng":"129.0046989","callnum":"051-330-2001","weekday":"09:00 ~ 16:30","saturday":"09:00 ~ 12:00","sunday":"미운영","sample":"○"},
{"no":"91","sido":"부산","name":"부산서구보건소","address":"부산광역시 서구 부용동2가(부민동) 86 서구보건소 부민노인복지관","lat":"35.1074533","lng":"129.0180644","callnum":"051-240-4891","weekday":"09:00 ~ 18:00","saturday":"09:00 ~ 18:00","sunday":"09:00 ~ 18:00","sample":"○"},
{"no":"92","sido":"부산","name":"부산대학교병원","address":"부산광역시 서구 아미동 구덕로 179","lat":"35.10049537","lng":"129.0190598","callnum":"051-240-7051","weekday":"09:00 ~ 18:00","saturday":"미운영","sunday":"미운영","sample":"○"},
{"no":"93","sido":"부산","name":"동아대학교병원","address":"부산광역시 서구 동대신동3가 대신공원로 26","lat":"35.1200646","lng":"129.0175195","callnum":"051-240-5085","weekday":"08:00 ~ 16:50","saturday":"미운영","sunday":"미운영","sample":"○"},
{"no":"94","sido":"부산","name":"고신대학교복음병원","address":"부산광역시 서구 암남동 감천로 262","lat":"35.08047897","lng":"129.0158656","callnum":"051-990-3233","weekday":"09:00 ~ 12:00","saturday":"미운영","sunday":"미운영","sample":"○"},
{"no":"95","sido":"부산","name":"삼육부산병원","address":"부산광역시 서구 서대신동2가 대티로 170","lat":"35.11268347","lng":"129.0111457","callnum":"051-600-7575","weekday":"09:00 ~ 17:00","saturday":"미운영","sunday":"09:00 ~ 17:00","sample":"○"},
{"no":"96","sido":"부산","name":"부산중구보건소","address":"부산광역시 중구 대청동1가 중구청 중구로 120","lat":"35.10615912","lng":"129.032339","callnum":"051-600-4741","weekday":"09:00 ~ 18:00","saturday":"09:00 ~ 18:00","sunday":"09:00 ~ 18:00","sample":"○"},
{"no":"97","sido":"부산","name":"메리놀병원","address":"부산광역시 중구 대청동4가 중구로 121","lat":"35.10732214","lng":"129.0325356","callnum":"051-461-2331","weekday":"11:00 ~ 17:00","saturday":"미운영","sunday":"미운영","sample":"○"},
{"no":"98","sido":"부산","name":"부산진구보건소","address":"부산광역시 부산광역시진구 범천동(범천제1동) 849-10 부산광역시진보건소","lat":"35.1461972","lng":"129.0598976","callnum":"051-645-4000","weekday":"09:00 ~ 18:00","saturday":"09:00 ~ 18:00","sunday":"09:00 ~ 18:00","sample":"○"},
{"no":"99","sido":"부산","name":"인제대학교부산백병원","address":"부산광역시 부산광역시진구 개금동 복지로 75","lat":"35.1461843","lng":"129.0208664","callnum":"051-890-8933","weekday":"09:00 ~ 16:00","saturday":"미운영","sunday":"미운영","sample":"○"},
{"no":"100","sido":"부산","name":"온종합병원","address":"부산광역시 부산광역시진구 당감동 가야대로 721","lat":"35.15781189","lng":"129.0499878","callnum":"051-607-0832","weekday":"11:00 ~ 16:00","saturday":"11:00 ~ 12:00","sunday":"미운영","sample":"○"},
{"no":"101","sido":"부산","name":"동의병원","address":"부산광역시 부산광역시진구 양정동 양정로 62","lat":"35.16985571","lng":"129.0768047","callnum":"051-850-8865","weekday":"08:30 ~ 17:00","saturday":"08:30 ~ 12:00","sunday":"미운영","sample":"○"},
{"no":"102","sido":"부산","name":"춘해병원","address":"부산광역시 부산광역시진구 범천동 중앙대로 605","lat":"35.14698988","lng":"129.0583811","callnum":"051-638-8000","weekday":"15:30 ~ 16:00","saturday":"미운영","sunday":"미운영","sample":"○"},
{"no":"103","sido":"부산","name":"사상구보건소","address":"부산광역시 사상구 감전동 138-8","lat":"35.1522421","lng":"128.9921721","callnum":"051-310-4791","weekday":"09:00 ~ 18:00","saturday":"09:00 ~ 18:00","sunday":"09:00 ~ 18:00","sample":"○"},
{"no":"104","sido":"부산","name":"부산보훈병원","address":"부산광역시 사상구 백양대로 420 (주례동)","lat":"35.1534229","lng":"129.007464","callnum":"051-601-6000","weekday":"08:30 ~ 17:30","saturday":"미운영","sunday":"미운영","sample":"○"},
{"no":"105","sido":"부산","name":"좋은삼선병원","address":"부산광역시 사상구 가야대로 326","lat":"35.1502463","lng":"129.0079077","callnum":"051-310-0900","weekday":"09:00 ~ 16:00","saturday":"09:00 ~ 12:00","sunday":"미운영","sample":"○"},
{"no":"106","sido":"부산","name":"사하구보건소","address":"부산광역시 사하구 하신중앙로 185 사하구보건소 (신평동, 사하구 제2청사, 신평2동행정복지센터)","lat":"35.0949707","lng":"128.9615367","callnum":"051-220-5741","weekday":"09:00 ~ 18:00","saturday":"09:00 ~ 18:00","sunday":"09:00 ~ 18:00","sample":"○"},
{"no":"107","sido":"부산","name":"수영구보건소","address":"부산광역시 수영구 광안1동 661-1번지","lat":"35.1625907","lng":"129.1134554","callnum":"051-752-4000","weekday":"09:00 ~ 18:00","saturday":"09:00 ~ 18:00","sunday":"09:00 ~ 18:00","sample":"○"},
{"no":"108","sido":"부산","name":"좋은강안병원","address":"부산광역시 수영구 수영로 493","lat":"35.1503451","lng":"129.110051","callnum":"051-625-0900","weekday":"09:30 ~ 16:00","saturday":"09:30 ~ 12:00","sunday":"미운영","sample":"○"},
{"no":"109","sido":"부산","name":"BHS한서병원","address":"부산광역시 수영구 수영로 615","lat":"35.1607723","lng":"129.1132002","callnum":"051-756-0081","weekday":"09:00 ~ 15:30","saturday":"미운영","sunday":"미운영","sample":"○"},
{"no":"110","sido":"부산","name":"연제구보건소","address":"부산광역시 연제구 연산2동 연제로 2(연산2동 1555)","lat":"35.1761822","lng":"129.0797511","callnum":"051-665-4781","weekday":"9:0 ~ 18:0","saturday":"9:0 ~ 18:0","sunday":"9:0 ~ 18:0","sample":"○"},
{"no":"111","sido":"부산","name":"부산광역시의료원","address":"부산광역시 연제구 월드컵대로 359","lat":"35.187166","lng":"129.0598035","callnum":"051-607-2816","weekday":"08:30 ~ 17:30","saturday":"08:30 ~ 17:30","sunday":"08:30 ~ 17:30","sample":"○"},
{"no":"112","sido":"부산","name":"영도구보건소","address":"부산광역시 영도구 태종로 423","lat":"35.091222","lng":"129.0680251","callnum":"051-416-4000","weekday":"09:00 ~ 18:00","saturday":"09:00 ~ 18:00","sunday":"09:00 ~ 18:00","sample":"○"},
{"no":"113","sido":"부산","name":"영도병원","address":"부산광역시 영도구 태종로 85","lat":"35.0922005","lng":"129.0404998","callnum":"051-419-7873","weekday":"9:00 ~ 17:00","saturday":"9:00 ~ 13:00","sunday":"미운영","sample":"○"},
{"no":"114","sido":"부산","name":"해동병원","address":"부산광역시 영도구 태종로 133(봉래동 3가)","lat":"35.0920009","lng":"129.0437983","callnum":"051-410-6682","weekday":"8:30 ~ 17:00","saturday":"미운영","sunday":"미운영","sample":"○"},
{"no":"115","sido":"부산","name":"해운대구보건소","address":"부산광역시 해운대구광역시 좌2동 1339","lat":"35.1639454","lng":"129.1789157","callnum":"051-746-4000","weekday":"09:00 ~ 17:00","saturday":"09:30 ~ 17:00","sunday":"09:30 ~ 17:00","sample":"○"},
{"no":"116","sido":"부산","name":"해운대백병원","address":"부산광역시 해운대구광역시 좌4동 해운대로 875","lat":"35.17359779","lng":"129.1819937","callnum":"051-797-0100","weekday":"08:30 ~ 17:00","saturday":"미운영","sunday":"미운영","sample":"○"},
{"no":"117","sido":"부산","name":"해운대부민병원","address":"부산광역시 해운대구광역시 우동 해운대로 584","lat":"35.16140789","lng":"129.1558667","callnum":"051-602-8000","weekday":"09:00 ~ 17:00","saturday":"미운영","sunday":"미운영","sample":"○"},
{"no":"118","sido":"대구","name":"달서구보건소","address":"대구광역시 달서구 월성동(월성2동) 281 달서구청","lat":"35.8298761","lng":"128.5328207","callnum":"053-667-5751","weekday":"09:00 ~ 17:00","saturday":"10:00 ~ 17:30","sunday":"10:00 ~ 17:30","sample":"○"},
{"no":"119","sido":"대구","name":"계명대학교 동산병원","address":"대구광역시 달서구 달구벌대로 1035","lat":"35.8538842","lng":"128.4801265","callnum":"1577-6622","weekday":"09:00 ~ 11:00","saturday":"미운영","sunday":"미운영","sample":"○"},
{"no":"120","sido":"대구","name":"삼일병원","address":"대구광역시 달서구 월배로 446","lat":"35.8329783","lng":"128.5543807","callnum":"053-659-3100","weekday":"09:00 ~ 18:00","saturday":"09:00 ~ 13:00","sunday":"미운영","sample":"○"},
{"no":"121","sido":"대구","name":"구병원","address":"대구광역시 달서구 감삼북길 141","lat":"35.8506855","lng":"128.5413849","callnum":"053-560-9114","weekday":"09:00 ~ 17:30","saturday":"09:00 ~ 13:00","sunday":"미운영","sample":"○"},
{"no":"122","sido":"대구","name":"세강병원","address":"대구광역시 달서구 구마로 220","lat":"35.8367492","lng":"128.5517061","callnum":"053-215-6200","weekday":"09:00 ~ 17:00","saturday":"09:00 ~ 13:00","sunday":"미운영","sample":"○"},
{"no":"123","sido":"대구","name":"W병원","address":"대구광역시 달서구 달구벌대로 1632","lat":"35.8526432","lng":"128.5449631","callnum":"053-550-5000","weekday":"09:00 ~ 18:00","saturday":"09:00 ~ 13:00","sunday":"미운영","sample":"○"},
{"no":"124","sido":"대구","name":"달성군 보건소","address":"대구광역시 달성군 현풍읍 하리 253-2","lat":"35.6920742","lng":"128.4454775","callnum":"053-668-3333","weekday":"09:00 ~ 18:00","saturday":"09:00 ~ 18:00","sunday":"09:00 ~ 18:00","sample":"○"},
{"no":"125","sido":"대구","name":"대구광역시 남구보건소","address":"대구광역시 남구 대명2동 2003번지(영선길 34)","lat":"35.8538382","lng":"128.5915152","callnum":"053-664-3601","weekday":"09:00 ~ 17:00","saturday":"10:00 ~ 14:00","sunday":"10:00 ~ 14:00","sample":"○"},
{"no":"126","sido":"대구","name":"영남대학교 병원","address":"대구광역시 남구 현충로 170","lat":"35.8475619","lng":"128.584771","callnum":"053-620-3177","weekday":"08:30 ~ 13:00","saturday":"미운영","sunday":"미운영","sample":"○"},
{"no":"127","sido":"대구","name":"대구가톨릭대학교 병원","address":"대구광역시 남구 두류공원로17길 33","lat":"35.8435349","lng":"128.5674613","callnum":"053-650-4194","weekday":"08:30 ~ 17:30","saturday":"미운영","sunday":"미운영","sample":"○"},
{"no":"128","sido":"대구","name":"드림병원","address":"대구광역시 남구 대명로 153","lat":"35.8395988","lng":"128.5744734","callnum":"053-640-8800","weekday":"08:30 ~ 17:30","saturday":"08:30 ~ 12:30","sunday":"미운영","sample":"○"},
{"no":"129","sido":"대구","name":"대구광역시 동구보건소","address":"대구광역시 동구 검사동(동촌동) 1005-8 동구보건소","lat":"35.8881037","lng":"128.6512374","callnum":"053-662-3225","weekday":"09:00 ~ 18:00","saturday":"09:00 ~ 16:00","sunday":"09:00 ~ 16:00","sample":"○"},
{"no":"130","sido":"대구","name":"대구파티마병원","address":"대구광역시 동구 아양로 99","lat":"35.8840124","lng":"128.6239471","callnum":"053-940-7098","weekday":"09:00 ~ 17:00","saturday":"09:00 ~ 12:00","sunday":"미운영","sample":"○"},
{"no":"131","sido":"대구","name":"대구광역시 북구보건소","address":"대구광역시 북구 침산3동 521-2 (침산동 북구보건소)","lat":"35.8917786","lng":"128.588873","callnum":"053-665-2756","weekday":"11:00 ~ 17:00","saturday":"11:00 ~ 16:00","sunday":"11:00 ~ 16:00","sample":"○"},
{"no":"132","sido":"대구","name":"대구가톨릭대학교 칠곡가톨릭병원","address":"대구광역시 북구 칠곡중앙대로 440","lat":"35.9349228","lng":"128.5492621","callnum":"053-320-2500","weekday":"09:00 ~ 17:00","saturday":"09:00 ~ 12:00","sunday":"미운영","sample":"○"},
{"no":"133","sido":"대구","name":"대구광역시 서구보건소","address":"대구광역시 서구 평리3동 1230-9(국채보상로257)","lat":"35.8723163","lng":"128.5592945","callnum":"053-663-3176, 3178","weekday":"10:00 ~ 17:00","saturday":"10:00 ~ 16:00","sunday":"10:00 ~ 16:00","sample":"○"},
{"no":"134","sido":"대구","name":"대구의료원","address":"대구광역시 서구 평리로 157","lat":"35.8594166","lng":"128.5399827","callnum":"053-560-7575","weekday":"00:00 ~ 00:00","saturday":"00:00 ~ 00:00","sunday":"00:00 ~ 00:00","sample":"○"},
{"no":"135","sido":"대구","name":"대구광역시 중구보건소","address":"대구광역시 중구 태평로3가(성내3동) 174-1 중구보건소","lat":"35.8778894","lng":"128.5833104","callnum":"053-661-3121","weekday":"09:30 ~ 18:00","saturday":"09:30 ~ 14:00","sunday":"09:30 ~ 14:00","sample":"○"},
{"no":"136","sido":"대구","name":"경북대학교병원","address":"대구광역시 중구 동덕로 130 경상북도대학교병원","lat":"35.8661193","lng":"128.6049495","callnum":"053-200-4355","weekday":"08:30 ~ 17:30","saturday":"미운영","sunday":"미운영","sample":"○"},
{"no":"137","sido":"대구","name":"수성구보건소","address":"대구광역시 수성구 중동 266-5(수성로213)","lat":"35.8447479","lng":"128.6122926","callnum":"053-666-3266","weekday":"09:30 ~ 17:30","saturday":"10:00 ~ 16:00","sunday":"10:00 ~ 16:00","sample":"○"},
{"no":"138","sido":"인천","name":"강화군보건소","address":"인천광역시 강화군 강화읍 남산리 324-1 강화군보건소","lat":"37.7372099","lng":"126.4849332","callnum":"032-930-4007","weekday":"09:00 ~ 18:00","saturday":"09:00 ~ 13:00","sunday":"09:00 ~ 13:00","sample":"○"},
{"no":"139","sido":"인천","name":"비에스종합병원","address":"인천광역시 강화군 강화읍 충렬사로 31","lat":"37.73624296","lng":"126.4861383","callnum":"032-290-0241","weekday":"00:00 ~ 24:00","saturday":"00:00 ~ 24:00","sunday":"00:00 ~ 24:00","sample":"○"},
{"no":"140","sido":"인천","name":"계양구보건소","address":"인천광역시 계양구 계산동 1079-1","lat":"37.5374171","lng":"126.7377508","callnum":"032-430-7821","weekday":"09:00 ~ 18:00","saturday":"09:00 ~ 13:00","sunday":"09:00 ~ 13:00","sample":"○"},
{"no":"141","sido":"인천","name":"인성의료재단 한림병원","address":"인천광역시 계양구 장제로 722","lat":"37.53232434","lng":"126.7342726","callnum":"032-540-9118~9","weekday":"09:00 ~ 18:00","saturday":"09:00 ~ 18:00","sunday":"09:00 ~ 18:00","sample":"○"},
{"no":"142","sido":"인천","name":"메디플렉스 세종병원","address":"인천광역시 계양구 계양문화로 20","lat":"37.5325061","lng":"126.7368606","callnum":"032-240-8000","weekday":"09:30 ~ 16:30","saturday":"09:30 ~ 11:30","sunday":"미운영","sample":"○"},
{"no":"143","sido":"인천","name":"인천광역시남동구보건소","address":"인천광역시 남동구 소래로 633, 남동구보건소","lat":"37.4472519","lng":"126.731074","callnum":"032-453-8570","weekday":"09:00 ~ 18:00","saturday":"09:00 ~ 13:00","sunday":"09:00 ~ 13:00","sample":"○"},
{"no":"144","sido":"인천","name":"길의료재단 길병원","address":"인천광역시 남동구 구월동 남동대로774번길 21","lat":"37.45200458","lng":"126.7092393","callnum":"032-460-3124","weekday":"08:00 ~ 17:00","saturday":"08:00 ~ 12:00","sunday":"미운영","sample":"○"},
{"no":"145","sido":"인천","name":"인천광역시부평구보건소","address":"인천광역시 부평구 부흥로 291 부평구보건소","lat":"37.4988436","lng":"126.7242642","callnum":"032-509-8200","weekday":"09:00 ~ 18:00","saturday":"09:00 ~ 13:00","sunday":"09:00 ~ 13:00","sample":"○"},
{"no":"146","sido":"인천","name":"부평세림병원","address":"인천광역시 부평구 부평대로 175","lat":"37.5068027","lng":"126.7195481","callnum":"032-509-5764","weekday":"8:30 ~ 17:00","saturday":"8:30 ~ 12:00","sunday":"미운영","sample":"○"},
{"no":"147","sido":"인천","name":"가톨릭대학교 인천성모병원","address":"인천광역시 부평구 동수로 56","lat":"37.4843814","lng":"126.7250303","callnum":"032-280-6915","weekday":"8:30 ~ 17:00","saturday":"8:30 ~ 12:00","sunday":"미운영","sample":"○"},
{"no":"148","sido":"인천","name":"근로복지공단 인천병원","address":"인천광역시 부평구 무네미로 446","lat":"37.4755678","lng":"126.7544501","callnum":"032-500-0229","weekday":"8:30 ~ 17:00","saturday":"미운영","sunday":"미운영","sample":"○"},
{"no":"149","sido":"인천","name":"연수구보건소","address":"인천광역시 연수구 청학동  465-2(함박뫼로 13호)","lat":"37.4189042","lng":"126.6711137","callnum":"032-749-8176","weekday":"09:00 ~ 18:00","saturday":"09:00 ~ 13:00","sunday":"09:00 ~ 13:00","sample":"○"},
{"no":"150","sido":"인천","name":"나사렛국제병원","address":"인천광역시 연수구 먼우금로 98 (동춘동, 나사렛국제병원)","lat":"37.4079497","lng":"126.670494","callnum":"032-899-9999","weekday":"08:30 ~ 17:30","saturday":"08:30 ~ 12:30","sunday":"미운영","sample":"○"},
{"no":"151","sido":"인천","name":"인천적십자병원","address":"인천광역시 연수구 원인재로 263 (연수동, 인천광역시적십자병원)","lat":"37.4184815","lng":"126.6897498","callnum":"032-899-4000","weekday":"08:30 ~ 17:00","saturday":"미운영","sunday":"미운영","sample":"○"},
{"no":"152","sido":"인천","name":"옹진군보건소","address":"인천광역시 미추홀구 매소홀로120","lat":"37.4465362","lng":"126.6368688","callnum":"032-899-3130","weekday":"09:00 ~ 18:00","saturday":"09:00 ~ 13:00","sunday":"09:00 ~ 13:00","sample":"○"},
{"no":"153","sido":"인천","name":"백령병원","address":"인천광역시 옹진군 백령면 백령로 233","lat":"37.96822805","lng":"124.7210219","callnum":"032-836-1731","weekday":"00:00 ~ 24:00","saturday":"00:00 ~ 24:00","sunday":"00:00 ~ 24:00","sample":"○"},
{"no":"154","sido":"인천","name":"인천광역시미추홀구보건소","address":"인천광역시 미추홀구 도화동(도화1동) 357-1 미추홀구보건소","lat":"37.4610535","lng":"126.6774666","callnum":"032-880-5333~4","weekday":"09:00 ~ 18:00","saturday":"09:00 ~ 13:00","sunday":"09:00 ~ 13:00","sample":"○"},
{"no":"155","sido":"인천","name":"인천사랑병원","address":"인천광역시 남구 미추홀대로 726","lat":"37.46224748","lng":"126.6806259","callnum":"032-457-2000","weekday":"08:30 ~ 17:30","saturday":"08:30 ~ 12:30","sunday":"미운영","sample":"○"},
{"no":"156","sido":"인천","name":"현대유비스병원","address":"인천광역시 미추홀구 독배로 503","lat":"37.46153887","lng":"126.6429901","callnum":"032-890-5509","weekday":"08:30 ~ 17:30","saturday":"08:30 ~ 12:30","sunday":"미운영","sample":"○"},
{"no":"157","sido":"인천","name":"인천광역시동구보건소","address":"인천광역시 동구 석수로90(만석동)","lat":"37.4829365","lng":"126.6258962","callnum":"032-770-6316","weekday":"09:00 ~ 18:00","saturday":"09:00 ~ 13:00","sunday":"09:00 ~ 13:00","sample":"○"},
{"no":"158","sido":"인천","name":"인천백병원","address":"인천광역시 동구 샛골로214(송림동)","lat":"37.481698","lng":"126.6458293","callnum":"1800-7070","weekday":"00:00 ~ 24:00","saturday":"00:00 ~ 24:00","sunday":"00:00 ~ 24:00","sample":"○"},
{"no":"159","sido":"인천","name":"인천광역시의료원","address":"인천광역시 동구 방축로217(송림동)","lat":"37.4784138","lng":"126.6692239","callnum":"032-580-6119","weekday":"00:00 ~ 24:00","saturday":"00:00 ~ 24:00","sunday":"00:00 ~ 24:00","sample":"○"},
{"no":"160","sido":"인천","name":"인천광역시서구보건소","address":"인천광역시 서구 심곡동(연희동) 246-1 서구보건소 39","lat":"37.5443746","lng":"126.673778","callnum":"032-560-5000","weekday":"09:00 ~ 18:00","saturday":"09:00 ~ 13:00","sunday":"09:00 ~ 13:00","sample":"○"},
{"no":"161","sido":"인천","name":"국제성모병원","address":"인천광역시 서구 연희동 심곡로100번길 25","lat":"37.54253586","lng":"126.6838581","callnum":"032-290-2781","weekday":"0:0 ~ 24:00","saturday":"0:0 ~ 24:00","sunday":"0:0 ~ 24:0","sample":"○"},
{"no":"162","sido":"인천","name":"검단탑병원","address":"인천광역시 서구 청마로19번길 5","lat":"37.5926599","lng":"126.6711357","callnum":"032-590-0119","weekday":"0:0 ~ 24:00","saturday":"0:0 ~ 24:00","sunday":"0:0 ~ 24:0","sample":"○"},
{"no":"163","sido":"인천","name":"나은병원","address":"인천광역시 서구 원적로 23","lat":"37.48930611","lng":"126.6799506","callnum":"032-584-4119","weekday":"0:0 ~ 24:00","saturday":"0:0 ~ 24:00","sunday":"0:0 ~ 24:0","sample":"○"},
{"no":"164","sido":"인천","name":"성민병원","address":"인천광역시 서구 석남1동 신석로 70","lat":"37.5100091","lng":"126.6696822","callnum":"032-726-1119","weekday":"0:0 ~ 24:00","saturday":"0:0 ~ 24:00","sunday":"0:0 ~ 24:0","sample":"○"},
{"no":"165","sido":"인천","name":"온누리병원","address":"인천광역시 서구 완정로 199","lat":"37.60275337","lng":"126.6542804","callnum":"032-568-9111","weekday":"0:0 ~ 24:00","saturday":"0:0 ~ 24:00","sunday":"0:0 ~ 24:0","sample":"○"},
{"no":"166","sido":"인천","name":"인천광역시중구보건소","address":"인천광역시 중구 전동 2-1","lat":"37.4770706","lng":"126.628977","callnum":"032-760-6050","weekday":"09:00 ~ 18:00","saturday":"09:00 ~ 13:00","sunday":"09:00 ~ 13:00","sample":"○"},
{"no":"167","sido":"인천","name":"인하대병원","address":"인천광역시 중구 인항로27","lat":"37.4588582","lng":"126.6341811","callnum":"032-890-2114","weekday":"00:00 ~ 24:00","saturday":"00:00 ~ 24:00","sunday":"00:00 ~ 24:00","sample":"○"},
{"no":"168","sido":"인천","name":"인천기독병원","address":"인천광역시 중구 답동로 30번길 10","lat":"37.4711238","lng":"126.6320814","callnum":"032-270-8300","weekday":"08:30 ~ 17:30","saturday":"미운영","sunday":"미운영","sample":"○"},
{"no":"169","sido":"인천","name":"영종 국제도시보건과","address":"인천광역시 중구 운남서로 100-1","lat":"37.4938266","lng":"126.5312854","callnum":"032-760-6888","weekday":"09:00 ~ 18:00","saturday":"09:00 ~ 13:00","sunday":"미운영","sample":"○"},
{"no":"170","sido":"광주","name":"광산구보건소","address":"광주광역시 광산구 송정동 833-8 (,송정동)","lat":"35.1394559","lng":"126.7936985","callnum":"062-960-6868","weekday":"09:30 ~ 17:30","saturday":"09:30 ~ 17:30","sunday":"09:30 ~ 17:30","sample":"○"},
{"no":"171","sido":"광주","name":"첨단종합병원","address":"광주광역시 광산구 첨단중앙로 170번길 59","lat":"35.2211093","lng":"126.8453031","callnum":"062-601-8119","weekday":"10:00 ~ 14:00","saturday":"미운영","sunday":"미운영","sample":"○"},
{"no":"172","sido":"광주","name":"KS병원","address":"광주광역시 광산구 왕버들로 220","lat":"35.1979002","lng":"126.8332011","callnum":"062-975-9782","weekday":"09:00 ~ 17:00","saturday":"09:00 ~ 13:00","sunday":"미운영","sample":"○"},
{"no":"173","sido":"광주","name":"광주남구보건소","address":"광주광역시 남구 봉선로 20-1","lat":"35.1313815","lng":"126.9019915","callnum":"062-671-4339","weekday":"09:00 ~ 18:00","saturday":"09:00 ~ 18:00","sunday":"09:00 ~ 18:00","sample":"○"},
{"no":"174","sido":"광주","name":"광주기독병원","address":"광주광역시 남구 양림로 37","lat":"35.1366732","lng":"126.9120485","callnum":"062-650-5272","weekday":"09:00 ~ 16:30","saturday":"미운영","sunday":"미운영","sample":"○"},
{"no":"175","sido":"광주","name":"광주동구보건소","address":"광주광역시 동구 서석동 31번지","lat":"35.1458766","lng":"126.9231745","callnum":"062-608-3424","weekday":"09:00 ~ 18:00","saturday":"09:00 ~ 18:00","sunday":"09:00 ~ 18:00","sample":"○"},
{"no":"176","sido":"광주","name":"조선대학교병원","address":"광주광역시 동구필문대로 365","lat":"35.1384128","lng":"126.9272012","callnum":"062-220-3996","weekday":"09:00 ~ 17:00","saturday":"미운영","sunday":"미운영","sample":"○"},
{"no":"177","sido":"광주","name":"광주북구보건소","address":"광주광역시 북구 중흥2동 359번지","lat":"35.1733511","lng":"126.9121089","callnum":"062-410-8112","weekday":"09:00 ~ 18:00","saturday":"09:00 ~ 18:00","sunday":"09:00 ~ 18:00","sample":"○"},
{"no":"178","sido":"광주","name":"광주일곡병원","address":"광주광역시 북구 양일로 309","lat":"35.2028574","lng":"126.897615","callnum":"062-608-7119","weekday":"09:00 ~ 09:00","saturday":"09:00 ~ 09:00","sunday":"09:00 ~ 09:00","sample":"○"},
{"no":"179","sido":"광주","name":"광주서구보건소","address":"광주광역시 서구 농성동(농성1동) 299 서구보건소","lat":"35.1519047","lng":"126.8899727","callnum":"062-350-4158,4130","weekday":"09:00 ~ 18:00","saturday":"09:00 ~ 18:00","sunday":"09:00 ~ 18:00","sample":"○"},
{"no":"180","sido":"광주","name":"서광병원","address":"광주광역시 서구 금화로59번길 6","lat":"35.13266335","lng":"126.8557659","callnum":"062-600-8119,8161","weekday":"09:00 ~ 17:00","saturday":"09:00 ~ 12:00","sunday":"미운영","sample":"○"},
{"no":"181","sido":"대전","name":"대덕구보건소","address":"대전광역시 대덕구 석봉동 318-1 대덕구보건소","lat":"36.4449279","lng":"127.4264183","callnum":"042-608-4451~4455","weekday":"09:00 ~ 17:00","saturday":"09:00 ~ 12:00","sunday":"09:00 ~ 12:00","sample":"○"},
{"no":"182","sido":"대전","name":"근로복지공단 대전병원","address":"대전광역시 대덕구 계족로 637","lat":"36.3684956","lng":"127.4286403","callnum":"042-670-5377","weekday":"08:30 ~ 12:30","saturday":"미운영","sunday":"미운영","sample":"○"},
{"no":"183","sido":"대전","name":"대전보훈병원","address":"대전광역시 대덕구 대청로 82번길 147","lat":"36.4470379","lng":"127.4399339","callnum":"042-939-0118,0100","weekday":"08:30 ~ 17:00","saturday":"미운영","sunday":"미운영","sample":"○"},
{"no":"184","sido":"대전","name":"대전광역시 동구보건소","address":"대전광역시 동구 가오동 425","lat":"36.3118212","lng":"127.4548111","callnum":"042-251-6305","weekday":"09:00 ~ 16:00","saturday":"09:00 ~ 12:00","sunday":"09:00 ~ 12:00","sample":"○"},
{"no":"185","sido":"대전","name":"대전한국병원","address":"대전광역시 동구 동서대로 1672","lat":"36.3481976","lng":"127.4358185","callnum":"042-606-1500","weekday":"09:00 ~ 16:00","saturday":"09:00 ~ 11:00","sunday":"09:00 ~ 11:00","sample":"○"},
{"no":"186","sido":"대전","name":"대전광역시 서구보건소","address":"대전광역시 서구 만년동 340번지","lat":"36.3670508","lng":"127.3810454","callnum":"042-288-4520","weekday":"10:00 ~ 16:00","saturday":"09:00 ~ 12:00","sunday":"09:00 ~ 12:00","sample":"○"},
{"no":"187","sido":"대전","name":"을지대학교병원","address":"대전광역시 서구 둔산서로 95","lat":"36.3553125","lng":"127.381974","callnum":"1899-0001","weekday":"08:30 ~ 17:30","saturday":"미운영","sunday":"미운영","sample":"○"},
{"no":"188","sido":"대전","name":"건양대학교병원","address":"대전광역시 서구 관저동로 158","lat":"36.3074832","lng":"127.3430782","callnum":"1577-3330","weekday":"08:30 ~ 17:30","saturday":"08:30 ~ 12:30","sunday":"미운영","sample":"○"},
{"no":"189","sido":"대전","name":"대전광역시 중구보건소","address":"대전광역시 중구 문화2동 785 중구보건소","lat":"36.3081371","lng":"127.3952744","callnum":"042-288-8043","weekday":"09:00 ~ 17:00","saturday":"09:00 ~ 12:00","sunday":"09:00 ~ 12:00","sample":"○"},
{"no":"190","sido":"대전","name":"대전성모병원","address":"대전광역시 중구 대흥로 64 가톨릭대학교대전광역시성모병원","lat":"36.3226182","lng":"127.4203439","callnum":"042-220-9114","weekday":"08:30 ~ 12:00","saturday":"미운영","sunday":"미운영","sample":"○"},
{"no":"191","sido":"대전","name":"대전선병원","address":"대전광역시 중구 목중로 29 대전광역시선병원","lat":"36.3360334","lng":"127.4102304","callnum":"042-220-8166","weekday":"08:30 ~ 17:30","saturday":"미운영","sunday":"미운영","sample":"○"},
{"no":"192","sido":"대전","name":"충남대학교병원","address":"대전광역시 중구 문화로 282 충청남도대학교병원","lat":"36.3166588","lng":"127.4162008","callnum":"042-280-6648","weekday":"09:00 ~ 17:30","saturday":"09:00 ~ 17:30","sunday":"09:00 ~ 17:30","sample":"○"},
{"no":"193","sido":"대전","name":"대전광역시 유성구보건소","address":"대전광역시 유성구 구암동(온천1동) 91-6 유성구보건소","lat":"36.3538708","lng":"127.3285721","callnum":"042-611-5000","weekday":"09:30 ~ 16:30","saturday":"09:30 ~ 11:30","sunday":"09:30 ~ 11:30","sample":"○"},
{"no":"194","sido":"대전","name":"유성선병원","address":"대전광역시 유성구 북유성대로 93","lat":"36.37516778","lng":"127.3249502","callnum":"042-609-1120","weekday":"09:00 ~ 12:00","saturday":"미운영","sunday":"미운영","sample":"○"},
{"no":"195","sido":"울산","name":"울산남구보건소","address":"울산광역시 남구 삼산동 1538-4번지 울산광역시남구보건소 (삼산동)","lat":"35.5453307","lng":"129.3363285","callnum":"052-226-2805","weekday":"09:00 ~ 16:00","saturday":"미운영","sunday":"미운영","sample":"○"},
{"no":"196","sido":"울산","name":"의)정안의료재단 중앙병원","address":"울산광역시 남구 문수로 480번길 10","lat":"35.5315302","lng":"129.3051934","callnum":"052-226-1303","weekday":"10:00 ~ 17:00","saturday":"10:00 ~ 12:00","sunday":"미운영","sample":"○"},
{"no":"197","sido":"울산","name":"울산병원","address":"울산광역시 남구 월평로 171번길 13","lat":"35.5462428","lng":"129.3230878","callnum":"052-259-5260","weekday":"09:00 ~ 17:00","saturday":"09:00 ~ 12:00","sunday":"미운영","sample":"○"},
{"no":"198","sido":"울산","name":"좋은삼정병원","address":"울산광역시 남구 북부순환도로 51","lat":"35.5528276","lng":"129.268933","callnum":"052-220-7592","weekday":"10:00 ~ 16:30","saturday":"미운영","sunday":"미운영","sample":"○"},
{"no":"199","sido":"울산","name":"울산동구보건소","address":"울산광역시 동구 화정동 222","lat":"35.5055187","lng":"129.4170034","callnum":"052-209-4080","weekday":"09:00 ~ 16:00","saturday":"미운영","sunday":"미운영","sample":"○"},
{"no":"200","sido":"울산","name":"울산대학교병원","address":"울산광역시 동구 방어진순환도로 877","lat":"35.5200368","lng":"129.4286136","callnum":"052-250-7410","weekday":"08:30 ~ 17:30","saturday":"미운영","sunday":"미운영","sample":"○"},
{"no":"201","sido":"울산","name":"울산북구보건소","address":"울산광역시 북구 연암동(효문동) 1082 보건소","lat":"35.5835342","lng":"129.3607174","callnum":"052-289-3450","weekday":"9:00 ~ 16:00","saturday":"미운영","sunday":"미운영","sample":"○"},
{"no":"202","sido":"울산","name":"울산시티병원","address":"울산광역시 북구 산업로 1007","lat":"35.5828968","lng":"129.3588972","callnum":"052-280-9000, 9178","weekday":"9:00 ~ 16:00","saturday":"9:00 ~ 12:00","sunday":"미운영","sample":"○"},
{"no":"203","sido":"울산","name":"울산중구보건소","address":"울산광역시 중구 남외동  603-2","lat":"35.5694277","lng":"129.3504073","callnum":"052-290-4300","weekday":"09:00 ~ 16:00","saturday":"미운영","sunday":"미운영","sample":"○"},
{"no":"204","sido":"울산","name":"동강병원","address":"울산광역시 중구 태화로 239","lat":"35.5536195","lng":"129.302022","callnum":"052-241-1119","weekday":"09:00 ~ 17:00","saturday":"미운영","sunday":"미운영","sample":"○"},
{"no":"205","sido":"울산","name":"울주군보건소","address":"울산광역시 울주군 삼남면 교동리 1605-1 울주군보건소","lat":"35.5583075","lng":"129.1138831","callnum":"052-204-2798","weekday":"09:00 ~ 16:00","saturday":"미운영","sunday":"미운영","sample":"○"},
{"no":"206","sido":"울산","name":"서울산보람병원","address":"울산광역시 울주군 삼남면 중평로 53","lat":"35.559911","lng":"129.1207882","callnum":"052-255-7114","weekday":"09:00 ~ 17:00","saturday":"09:00 ~ 12:00","sunday":"미운영","sample":"○"},
{"no":"207","sido":"울산","name":"KTX역 선별진료소","address":"울산광역시 울주군 삼남면 신화리467","lat":"35.5512868","lng":"129.1379507","callnum":"052-229-3562","weekday":"10:00 ~ 18:00","saturday":"10:00 ~ 18:00","sunday":"10:00 ~ 18:00","sample":"○"},
{"no":"208","sido":"경기","name":"가평군보건소","address":"경기도 가평군 가평읍 읍내3리 624-1","lat":"37.8469186","lng":"127.4872826","callnum":"031-582-2488","weekday":"09:00 ~ 18:00","saturday":"09:00 ~ 17:00","sunday":"09:00 ~ 17:00","sample":"○"},
{"no":"209","sido":"경기","name":"HJ매그놀리아국제병원","address":"경기도 가평군 설악면 미사리로 267-177 청심국제병원","lat":"37.69104576","lng":"127.5213379","callnum":"031-589-4300","weekday":"09:00 ~ 24:00","saturday":"09:00 ~ 18:00","sunday":"09:00 ~ 18:00","sample":"○"},
{"no":"210","sido":"경기","name":"고양시덕양구보건소","address":"경기도 고양시 덕양구 주교동 603 덕양구보건소","lat":"37.6578253","lng":"126.830993","callnum":"031-8075-4059","weekday":"09:00 ~ 18:00","saturday":"09:00 ~ 18:00","sunday":"09:00 ~ 18:00","sample":"○"},
{"no":"211","sido":"경기","name":"의료법인명지의료재단명지병원","address":"경기도 고양시 덕양구 화수로14번길 55","lat":"37.6421981","lng":"126.8306261","callnum":"031-810-5114","weekday":"24:00 ~ 24:00","saturday":"24:00 ~ 24:00","sunday":"24:00 ~ 24:00","sample":"○"},
{"no":"212","sido":"경기","name":"과천시보건소","address":"경기도 과천시 중앙동 관문로 69 과천시청","lat":"37.42931608","lng":"126.987673","callnum":"02-2150-3562","weekday":"09:00 ~ 18:00","saturday":"09:00 ~ 15:00","sunday":"09:00 ~ 15:00","sample":"○"},
{"no":"213","sido":"경기","name":"광명시보건소","address":"경기도 광명시 하안1동 230-1 오리로613","lat":"37.4564123","lng":"126.8786571","callnum":"02-2680-2577","weekday":"09:00 ~ 18:00","saturday":"09:00 ~ 15:00","sunday":"09:00 ~ 15:00","sample":"○"},
{"no":"214","sido":"경기","name":"광명성애병원","address":"경기도 광명시 디지털로 36","lat":"37.4732344","lng":"126.8719957","callnum":"02-2680-7339","weekday":"09:00 ~ 17:30","saturday":"미운영","sunday":"미운영","sample":"○"},
{"no":"215","sido":"경기","name":"광주시보건소","address":"경기도 광주시 경안동 115","lat":"37.4165449","lng":"127.25038","callnum":"031-760-2110","weekday":"09:00 ~ 17:00","saturday":"09:00 ~ 13:00","sunday":"09:00 ~ 13:00","sample":"○"},
{"no":"216","sido":"경기","name":"참조은병원","address":"경기도 광주시 경안동 광주광역시대로 45","lat":"37.41093421","lng":"127.2601982","callnum":"031-767-7575","weekday":"09:00 ~ 17:00","saturday":"09:00 ~ 13:00","sunday":"미운영","sample":"○"},
{"no":"217","sido":"경기","name":"구리시보건소","address":"경기도 구리시 인창동 674-3","lat":"37.6046824","lng":"127.1450492","callnum":"031-550-8432","weekday":"09:30 ~ 17:00","saturday":"09:30 ~ 17:00","sunday":"09:30 ~ 17:00","sample":"○"},
{"no":"218","sido":"경기","name":"한양대학교구리병원","address":"경기도 구리시 경춘로 153","lat":"37.6014457","lng":"127.1324363","callnum":"1644-9118","weekday":"9:00 ~ 17:30","saturday":"9:00 ~ 12:30","sunday":"미운영","sample":"○"},
{"no":"219","sido":"경기","name":"원진녹색병원","address":"경기도 구리시 동구릉로65","lat":"37.6059435","lng":"127.1338791","callnum":"031-550-1111","weekday":"9:00 ~ 16:30","saturday":"9:00 ~ 10:30","sunday":"미운영","sample":"○"},
{"no":"220","sido":"경기","name":"군포시보건소","address":"경기도 군포시 부곡동 770-1 (군포로221)","lat":"37.3330707","lng":"126.9256756","callnum":"031-461-5464","weekday":"09:00 ~ 17:00","saturday":"09:00 ~ 12:00","sunday":"미운영","sample":"○"},
{"no":"221","sido":"경기","name":"원광대학교의과대학 산본병원","address":"경기도 군포시 산본로 321","lat":"37.3594087","lng":"126.9336197","callnum":"031-390-2345","weekday":"09:00 ~ 11:30","saturday":"미운영","sunday":"미운영","sample":"○"},
{"no":"222","sido":"경기","name":"효산의료재단법인 지샘병원","address":"경기도 군포시 군포로 591","lat":"37.3586672","lng":"126.9474131","callnum":"031-389-3119","weekday":"09:00 ~ 16:30","saturday":"09:00 ~ 11:30","sunday":"미운영","sample":"○"},
{"no":"223","sido":"경기","name":"기흥구보건소","address":"경기도 용인시 기흥구 신갈로 58번길 11","lat":"37.2725193","lng":"127.1068298","callnum":"031-324-6975","weekday":"09:00 ~ 17:00","saturday":"09:00 ~ 13:00","sunday":"09:00 ~ 13:00","sample":"○"},
{"no":"224","sido":"경기","name":"강남병원","address":"경기도 용인시 기흥구 신갈동 중부대로 411","lat":"37.27391198","lng":"127.1114849","callnum":"031-300-0119","weekday":"08:30 ~ 17:00","saturday":"08:30 ~ 12:00","sunday":"미운영","sample":"○"},
{"no":"225","sido":"경기","name":"용인세브란스병원","address":"경기도 용인시 기흥구 동백죽전대로363","lat":"37.2705673","lng":"127.1463724","callnum":"031-5189-9010","weekday":"08:30 ~ 17:00","saturday":"08:30 ~ 12:00","sunday":"미운영","sample":"○"},
{"no":"226","sido":"경기","name":"김포시보건소","address":"경기도 김포시 사우동 사우중로 108","lat":"37.62384294","lng":"126.7228564","callnum":"031-5186-4051","weekday":"09:00 ~ 18:00","saturday":"09:00 ~ 18:00","sunday":"09:00 ~ 13:00","sample":"○"},
{"no":"227","sido":"경기","name":"김포우리병원","address":"경기도 김포시 감암로 11","lat":"37.6323078","lng":"126.710702","callnum":"031-999-1000","weekday":"09:00 ~ 18:00","saturday":"09:00 ~ 17:00","sunday":"미운영","sample":"○"},
{"no":"228","sido":"경기","name":"뉴고려병원","address":"경기도 김포시 김포한강3로 283","lat":"37.640899","lng":"126.6601781","callnum":"1661-7779","weekday":"08:30 ~ 17:30","saturday":"미운영","sunday":"미운영","sample":"○"},
{"no":"229","sido":"경기","name":"히즈메디병원","address":"경기도 김포시 김포대로 681","lat":"37.6111978","lng":"126.7348965","callnum":"1588-0223","weekday":"08:00 ~ 21:00","saturday":"08:30 ~ 17:00","sunday":"08:30 ~ 17:00","sample":"○"},
{"no":"230","sido":"경기","name":"남양주보건소","address":"경기도 남양주시 다산동(다산2동) 3159-7 남양주시청제2청사 1~2층","lat":"37.6102758","lng":"127.1712849","callnum":"031-590-4454","weekday":"09:30 ~ 17:00","saturday":"09:30 ~ 15:00","sunday":"09:30 ~ 15:00","sample":"○"},
{"no":"231","sido":"경기","name":"남양주보건소 동부보건센터","address":"경기도 남양주시 화도읍 비룡로59","lat":"37.6578044","lng":"127.3004583","callnum":"031-590-8515","weekday":"09:30 ~ 17:00","saturday":"09:30 ~ 15:00","sunday":"09:30 ~ 15:00","sample":"○"},
{"no":"232","sido":"경기","name":"동두천시보건소","address":"경기도 동두천시 생연2동 714-9 동두천시보건소","lat":"37.8965387","lng":"127.0518504","callnum":"031-860-3425","weekday":"09:00 ~ 17:30","saturday":"09:30 ~ 12:30","sunday":"09:30 ~ 12:30","sample":"○"},
{"no":"233","sido":"경기","name":"안양시 만안구보건소","address":"경기도 안양시 만안구 안양동(안양6동) 532-1","lat":"37.3858576","lng":"126.932929","callnum":"031-8045-3472","weekday":"09:00 ~ 17:00","saturday":"09:00 ~ 15:00","sunday":"미운영","sample":"○"},
{"no":"234","sido":"경기","name":"샘안양병원","address":"경기도 안양시 만안구 삼덕로 9","lat":"37.3930905","lng":"126.924684","callnum":"031-467-9119","weekday":"08:30 ~ 17:30","saturday":"08:30 ~ 12:30","sunday":"미운영","sample":"○"},
{"no":"235","sido":"경기","name":"성남시분당구보건소","address":"경기도 성남시 분당구 야탑동(야탑1동) 349 분당보건소","lat":"37.4110038","lng":"127.1245951","callnum":"031-729-3990","weekday":"09:00 ~ 17:00","saturday":"09:00 ~ 13:00","sunday":"09:00 ~ 13:00","sample":"○"},
{"no":"236","sido":"경기","name":"분당차병원","address":"경기도 성남시 분당구 야탑로 59(야탑동)","lat":"37.4102534","lng":"127.1254736","callnum":"031-780-5546","weekday":"09:00 ~ 17:00","saturday":"09:00 ~ 12:00","sunday":"미운영","sample":"○"},
{"no":"237","sido":"경기","name":"분당제생병원","address":"경기도 성남시 분당구서현로180번길20(서현동)","lat":"37.3881037","lng":"127.1216317","callnum":"031-779-6594","weekday":"09:00 ~ 17:00","saturday":"09:00 ~ 12:00","sunday":"미운영","sample":"○"},
{"no":"238","sido":"경기","name":"성남시수정구보건소","address":"경기도 성남시 수정구 신흥동 3435 수정구보건소 218","lat":"37.4443958","lng":"127.1440624","callnum":"031-729-3870","weekday":"09:00 ~ 17:00","saturday":"09:00 ~ 13:00","sunday":"09:00 ~ 13:00","sample":"○"},
{"no":"239","sido":"경기","name":"성남시의료원","address":"경기도 성남시 수정구 수정로 171번길 10","lat":"37.4447828","lng":"127.1390402","callnum":"031-738-7000","weekday":"08:30 ~ 17:00","saturday":"미운영","sunday":"미운영","sample":"○"},
{"no":"240","sido":"경기","name":"순천의료재단 정병원","address":"경기도 성남시 수정구 수정로 76","lat":"37.43984985","lng":"127.1289755","callnum":"031-757-8900","weekday":"13:30 ~ 17:30","saturday":"09:00 ~ 12:00","sunday":"미운영","sample":"○"},
{"no":"241","sido":"경기","name":"수원시권선구보건소","address":"경기도 수원시 권선구 호매실로 22-50","lat":"37.2586671","lng":"126.9710934","callnum":"031-228-6717","weekday":"09:00 ~ 17:00","saturday":"09:00 ~ 13:00","sunday":"09:00 ~ 13:00","sample":"○"},
{"no":"242","sido":"경기","name":"시흥시보건소","address":"경기도 시흥시 대야동 484-3 (호현로55)","lat":"37.4454885","lng":"126.7853487","callnum":"031-310-6815~8","weekday":"09:30 ~ 17:00","saturday":"09:30 ~ 13:00","sunday":"09:00 ~ 12:30","sample":"○"},
{"no":"243","sido":"경기","name":"시흥시화병원","address":"경기도 시흥시 군자천로 381","lat":"37.3499575","lng":"126.7369686","callnum":"031-5189-0516","weekday":"00:00 ~ 24:00","saturday":"09:00 ~ 24:00","sunday":"09:00 ~ 24:00","sample":"○"},
{"no":"244","sido":"경기","name":"신천연합병원","address":"경기도 시흥시 복지로 57","lat":"37.4445206","lng":"126.7893762","callnum":"031-310-6527","weekday":"08:30 ~ 17:30","saturday":"미운영","sunday":"미운영","sample":"○"},
{"no":"245","sido":"경기","name":"센트럴병원","address":"경기도 시흥시 공단1대로 237","lat":"37.3367442","lng":"126.728196","callnum":"031-8041-3752,3968","weekday":"09:00 ~ 24:00","saturday":"09:00 ~ 24:00","sunday":"09:00 ~ 24:00","sample":"○"},
{"no":"246","sido":"경기","name":"정왕보건지소","address":"경기도 시흥시 정왕대로233번길 19","lat":"37.3466573","lng":"126.7401276","callnum":"031-310-5901","weekday":"09:30 ~ 17:00","saturday":"09:00 ~ 12:30","sunday":"09:30 ~ 13:00","sample":"○"},
{"no":"247","sido":"경기","name":"안산시단원보건소","address":"경기도 안산시 단원구 초지동 666-8 안산시 단원보건소","lat":"37.3208699","lng":"126.8152022","callnum":"031-481-6363","weekday":"09:00 ~ 17:00","saturday":"09:00 ~ 13:00","sunday":"09:00 ~ 13:00","sample":"○"},
{"no":"248","sido":"경기","name":"고려대학교안산병원","address":"경기도 안산시 단원구 적금로 123","lat":"37.3190854","lng":"126.8251021","callnum":"031-412-5400","weekday":"09:00 ~ 16:00","saturday":"미운영","sunday":"미운영","sample":"○"},
{"no":"249","sido":"경기","name":"의료법인대아의료재단한도병원","address":"경기도 안산시 단원구 선부광장로 103","lat":"37.3340482","lng":"126.8076153","callnum":"031-8040-1369","weekday":"09:00 ~ 17:00","saturday":"09:00 ~ 12:00","sunday":"미운영","sample":"○"},
{"no":"250","sido":"경기","name":"안산시상록수보건소","address":"경기도 안산시 상록구 사1동  1584","lat":"37.3008587","lng":"126.8445043","callnum":"031-481-5894","weekday":"09:00 ~ 17:00","saturday":"09:00 ~ 13:00","sunday":"09:00 ~ 13:00","sample":"○"},
{"no":"251","sido":"경기","name":"근로복지공단안산병원","address":"경기도 안산시 상록구  구룡로 87","lat":"37.3166918","lng":"126.874565","callnum":"031-500-1770","weekday":"08:30 ~ 17:00","saturday":"미운영","sunday":"미운영","sample":"○"},
{"no":"252","sido":"경기","name":"안성시보건소","address":"경기도 안성시 강변로 74번길 18(도기동)","lat":"37.0002009","lng":"127.2697894","callnum":"031-678-5724","weekday":"09:00 ~ 18:00","saturday":"09:00 ~ 14:00","sunday":"미운영","sample":"○"},
{"no":"253","sido":"경기","name":"경기도의료원 안성병원","address":"경기도 안성시 남파로 95(당왕동)","lat":"37.0173543","lng":"127.2603654","callnum":"031-8046-5000","weekday":"08:30 ~ 17:30","saturday":"미운영","sunday":"미운영","sample":"○"},
{"no":"254","sido":"경기","name":"안성성모병원","address":"경기도 안성시 시장길 58(서인동)","lat":"37.0061192","lng":"127.2708901","callnum":"031-675-6007","weekday":"00:00 ~ 00:00","saturday":"00:00 ~ 00:00","sunday":"00:00 ~ 00:00","sample":"○"},
{"no":"255","sido":"경기","name":"안양시 동안구보건소","address":"경기도 안양시 동안구 비산동 1111번지","lat":"37.3924567","lng":"126.9514355","callnum":"031-8045-4490","weekday":"09:00 ~ 17:00","saturday":"미운영","sunday":"09:00 ~ 15:00","sample":"○"},
{"no":"256","sido":"경기","name":"한림대학교성심병원","address":"경기도 안양시 동안구 관평로 170번길11","lat":"37.3925618","lng":"126.961293","callnum":"031-380-4088,5975","weekday":"08:30 ~ 16:30","saturday":"08:30 ~ 12:00","sunday":"미운영","sample":"○"},
{"no":"257","sido":"경기","name":"양주시보건소","address":"경기도 양주시 남방동(양주1동) 1-1 양주시보건소,양주시의회,양주시청 양주시보건소","lat":"37.7850497","lng":"127.0452501","callnum":"031-8082-7777","weekday":"09:00 ~ 17:00","saturday":"09:00 ~ 12:00","sunday":"미운영","sample":"○"},
{"no":"258","sido":"경기","name":"양평군보건소","address":"경기도 양평군 양평읍 양근리 마유산로 17번지","lat":"37.4970119","lng":"127.4866647","callnum":"031-770-3490","weekday":"09:00 ~ 18:00","saturday":"09:00 ~ 17:00","sunday":"09:00 ~ 17:00","sample":"○"},
{"no":"259","sido":"경기","name":"양평병원","address":"경기도 양평군 양평읍 중앙로 129","lat":"37.4941639","lng":"127.5033875","callnum":"031-770-5119","weekday":"09:00 ~ 18:00","saturday":"09:00 ~ 17:00","sunday":"미운영","sample":"○"},
{"no":"260","sido":"경기","name":"여주시보건소","address":"경기도 여주시 상동 358-3 여주시보건소","lat":"37.2944446","lng":"127.6399161","callnum":"031-887-3598","weekday":"09:00 ~ 17:00","saturday":"09:00 ~ 13:00","sunday":"09:00 ~ 13:00","sample":"○"},
{"no":"261","sido":"경기","name":"세종여주병원","address":"경기도 여주시 청심로 39","lat":"37.3014366","lng":"127.62523","callnum":"031-880-7700","weekday":"09:00 ~ 18:00","saturday":"09:00 ~ 13:00","sunday":"미운영","sample":"○"},
{"no":"262","sido":"경기","name":"오산시보건소","address":"경기도 오산시 오산동 25","lat":"37.1593256","lng":"127.0777088","callnum":"031-8036-6025","weekday":"09:00 ~ 17:00","saturday":"09:00 ~ 12:00","sunday":"09:00 ~ 12:00","sample":"○"},
{"no":"263","sido":"경기","name":"오산한국병원","address":"경기도 오산시 밀머리로1번길 16","lat":"37.1413494","lng":"127.075507","callnum":"031-379-8300","weekday":"09:00 ~ 18:00","saturday":"09:00 ~ 13:00","sunday":"미운영","sample":"○"},
{"no":"264","sido":"경기","name":"순천향대학교부속부천병원","address":"경기도 부천시 중1동 조마루로 170","lat":"37.49852451","lng":"126.7628323","callnum":"032-621-5114","weekday":"09:00 ~ 17:00","saturday":"09:00 ~ 12:00","sunday":"미운영","sample":"○"},
{"no":"265","sido":"경기","name":"가톨릭대학교부천성모병원","address":"경기도 부천시 소사로 327","lat":"37.4871484","lng":"126.7928723","callnum":"032-340-2402","weekday":"09:00 ~ 17:00","saturday":"09:00 ~ 12:00","sunday":"미운영","sample":"○"},
{"no":"266","sido":"경기","name":"부천세종병원","address":"경기도 부천시 호현로 489번길 28","lat":"37.4812327","lng":"126.7915089","callnum":"032-340-1897","weekday":"09:00 ~ 16:00","saturday":"미운영","sunday":"미운영","sample":"○"},
{"no":"267","sido":"경기","name":"부천시보건소","address":"경기도 부천시 춘의동 소사로 482","lat":"37.50496688","lng":"126.7966743","callnum":"032-625-8881~4","weekday":"09:30 ~ 17:30","saturday":"09:30 ~ 13:00","sunday":"09:30 ~ 13:00","sample":"○"},
{"no":"268","sido":"경기","name":"의왕시보건소","address":"경기도 의왕시 고천동  108","lat":"37.3437731","lng":"126.9720664","callnum":"031-345-3541","weekday":"09:00 ~ 18:00","saturday":"09:00 ~ 12:00","sunday":"09:00 ~ 12:00","sample":"○"},
{"no":"269","sido":"경기","name":"아가페의료재단 시티병원","address":"경기도 의왕시 오전천로 29","lat":"37.3502841","lng":"126.976831","callnum":"031-340-2555","weekday":"10:00 ~ 12:00","saturday":"미운영","sunday":"미운영","sample":"○"},
{"no":"270","sido":"경기","name":"의정부시보건소","address":"경기도 의정부시 의정부2동 516 의정부시보건소","lat":"37.7360962","lng":"127.0395257","callnum":"031-870-6011~4","weekday":"10:00 ~ 17:00","saturday":"10:00 ~ 13:00","sunday":"10:00 ~ 13:00","sample":"○"},
{"no":"271","sido":"경기","name":"경기도의료원의정부병원(응급실)","address":"경기도 의정부시 흥선로 142","lat":"37.7411222","lng":"127.0426377","callnum":"031-828-5143","weekday":"09:00 ~ 17:00","saturday":"미운영","sunday":"미운영","sample":"○"},
{"no":"272","sido":"경기","name":"가톨릭대학교 의정부 성모병원 ","address":"경기도 의정부시 천보로 271","lat":"37.7586493","lng":"127.0779677","callnum":"1661-7500","weekday":"08:30 ~ 16:30","saturday":"미운영","sunday":"미운영","sample":"○"},
{"no":"273","sido":"경기","name":"추병원","address":"경기도 의정부시 평화로 650","lat":"37.7497291","lng":"127.0451367","callnum":"031-823-8063","weekday":"09:30 ~ 16:00","saturday":"09:30 ~ 11:30","sunday":"미운영","sample":"○"},
{"no":"274","sido":"경기","name":"의정부백병원","address":"경기도 의정부시 금신로  322","lat":"37.7453507","lng":"127.0620316","callnum":"031-842-1211","weekday":"08:30 ~ 16:30","saturday":"08:30 ~ 11:30","sunday":"미운영","sample":"○"},
{"no":"275","sido":"경기","name":"의정부을지대학교병원","address":"경기도 의정부시 금오동 동일로 712","lat":"37.75156952","lng":"127.0508745","callnum":"031-951-2083","weekday":"08:30 ~ 16:30","saturday":"미운영","sunday":"미운영","sample":"○"},
{"no":"276","sido":"경기","name":"이천시보건소","address":"경기도 이천시 증포동 152-2","lat":"37.2889223","lng":"127.4523075","callnum":"031-644-4011","weekday":"09:00 ~ 18:00","saturday":"09:00 ~ 13:00","sunday":"09:00 ~ 13:00","sample":"○"},
{"no":"277","sido":"경기","name":"경기도의료원이천병원","address":"경기도 이천시 경충대로 2742","lat":"37.2826844","lng":"127.4327078","callnum":"031-630-4200","weekday":"08:30 ~ 17:00","saturday":"미운영","sunday":"미운영","sample":"○"},
{"no":"278","sido":"경기","name":"일산서구보건소","address":"경기도 고양시 일산서구 일산동 일중로 54","lat":"37.6843863","lng":"126.7758627","callnum":"031-8075-4212","weekday":"09:00 ~ 18:00","saturday":"09:00 ~ 18:00","sunday":"09:00 ~ 18:00","sample":"○"},
{"no":"279","sido":"경기","name":"인제대학교일산백병원","address":"경기도 고양시 일산서구 주화로 170","lat":"37.674271","lng":"126.7503763","callnum":"031-910-7114","weekday":"07:00 ~ 17:00","saturday":"미운영","sunday":"미운영","sample":"○"},
{"no":"280","sido":"경기","name":"장안구보건소","address":"경기도 수원시 장안구 조원동 888번지","lat":"37.3036839","lng":"127.010062","callnum":"031-228-5717","weekday":"09:00 ~ 17:00","saturday":"09:00 ~ 13:00","sunday":"09:00 ~ 13:00","sample":"○"},
{"no":"281","sido":"경기","name":"경기도의료원 수원병원","address":"경기도 수원시 장안구 수성로245번길 69","lat":"37.2921094","lng":"126.9966684","callnum":"031-888-0119","weekday":"10:00 ~ 16:00","saturday":"10:00 ~ 16:00","sunday":"10:00 ~ 16:00","sample":"○"},
{"no":"282","sido":"경기","name":"성남시중원구보건소","address":"경기도 성남시 중원구 상대원1동 269-10","lat":"37.4419636","lng":"127.1707037","callnum":"031-729-3930","weekday":"09:00 ~ 17:00","saturday":"09:00 ~ 13:00","sunday":"09:00 ~ 13:00","sample":"○"},
{"no":"283","sido":"경기","name":"성남중앙병원","address":"경기도 성남시 중원구 산성대로 476번길 12","lat":"37.4524899","lng":"127.1620202","callnum":"031-799-5366","weekday":"09:00 ~ 17:00","saturday":"09:00 ~ 12:00","sunday":"미운영","sample":"○"},
{"no":"284","sido":"경기","name":"처인구보건소","address":"경기도 용인시 처인구 삼가동 556","lat":"37.2406654","lng":"127.1777043","callnum":"031-324-4981","weekday":"09:00 ~ 17:00","saturday":"09:00 ~ 15:00","sunday":"09:00 ~ 15:00","sample":"○"},
{"no":"285","sido":"경기","name":"영문의료재단 다보스병원","address":"경기도 용인시 처인구 백옥대로1082번길 18","lat":"37.23159695","lng":"127.2113281","callnum":"031-8021-2130","weekday":"00:00 ~ 24:00","saturday":"00:00 ~ 24:00","sunday":"00:00 ~ 24:00","sample":"○"},
{"no":"286","sido":"경기","name":"용인서울병원","address":"경기도 용인시 처인구 고림로 81","lat":"37.2403572","lng":"127.2145967","callnum":"031-322-0001","weekday":"09:00 ~ 17:30","saturday":"09:00 ~ 12:30","sunday":"미운영","sample":"○"},
{"no":"287","sido":"경기","name":"파주시보건소","address":"경기도 파주시 금촌동(금촌1동) 953-1 파주시보건소","lat":"37.7562915","lng":"126.773805","callnum":"031-940-5577","weekday":"09:00 ~ 18:00","saturday":"09:00 ~ 18:00","sunday":"09:00 ~ 18:00","sample":"○"},
{"no":"288","sido":"경기","name":"경기도의료원 파주병원","address":"경기도 파주시 중앙로 207","lat":"37.7548407","lng":"126.7798547","callnum":"031-940-9119","weekday":"08:30 ~ 17:30","saturday":"미운영","sunday":"미운영","sample":"○"},
{"no":"289","sido":"경기","name":"메디인병원","address":"경기도 파주시 시청로 6","lat":"37.7580498","lng":"126.7747973","callnum":"031-943-1191","weekday":"09:00 ~ 17:00","saturday":"09:00 ~ 13:00","sunday":"미운영","sample":"○"},
{"no":"290","sido":"경기","name":"팔달구보건소","address":"경기도 수원시 팔달구 교동 56-1번지","lat":"37.2714907","lng":"127.0125019","callnum":"031-228-7716","weekday":"09:00 ~ 17:00","saturday":"09:00 ~ 13:00","sunday":"09:00 ~ 13:00","sample":"○"},
{"no":"291","sido":"경기","name":"성빈센트 병원","address":"경기도 수원시 팔달구 중부대로 93 (지동)","lat":"37.2780316","lng":"127.027628","callnum":"1577-8588","weekday":"09:00 ~ 17:00","saturday":"미운영","sunday":"미운영","sample":"○"},
{"no":"292","sido":"경기","name":"동수원 병원","address":"경기도 수원시 팔달구 중부대로 165 (우만동)","lat":"37.2785531","lng":"127.0340939","callnum":"031-210-0114","weekday":"09:00 ~ 17:00","saturday":"미운영","sunday":"미운영","sample":"○"},
{"no":"293","sido":"경기","name":"평택시평택보건소","address":"경기도 평택시 비전동 850(평택5로 56)","lat":"36.9906084","lng":"127.1118333","callnum":"031-8024-5559","weekday":"09:00 ~ 18:00","saturday":"09:00 ~ 13:00","sunday":"09:00 ~ 13:00","sample":"○"},
{"no":"294","sido":"경기","name":"의료법인 백송의료재단 굿모닝병원","address":"경기도 평택시 중앙로 338","lat":"36.9906551","lng":"127.1205164","callnum":"031-5182-7582","weekday":"00:00 ~ 24:00","saturday":"00:00 ~ 24:00","sunday":"00:00 ~ 24:00","sample":"○"},
{"no":"295","sido":"경기","name":"의료법인 박애의료재단 박애병원","address":"경기도 평택시 평택2로20번길 3","lat":"36.9930403","lng":"127.0890785","callnum":" 031-650-9219","weekday":"08:30 ~ 17:00","saturday":"08:30 ~ 12:30","sunday":"미운영","sample":"○"},
{"no":"296","sido":"경기","name":"의료법인 양진의료재단 평택성모병원","address":"경기도 평택시 평택로 284","lat":"37.0084255","lng":"127.0743215","callnum":"031-1800-8800","weekday":"08:30 ~ 17:00","saturday":"08:30 ~ 12:30","sunday":"미운영","sample":"○"},
{"no":"297","sido":"경기","name":"포천시보건소","address":"경기도 포천시 신읍동 164-3 (포천시보건소)","lat":"37.9006022","lng":"127.201197","callnum":"031-538-4484","weekday":"09:00 ~ 18:00","saturday":"09:00 ~ 13:00","sunday":"09:00 ~ 13:00","sample":"○"},
{"no":"298","sido":"경기","name":"경기도의료원 포천병원","address":"경기도 포천시 포천로 1648","lat":"37.9032122","lng":"127.1981213","callnum":"031-539-9119","weekday":"08:30 ~ 17:30","saturday":"08:30 ~ 17:30","sunday":"08:30 ~ 17:30","sample":"○"},
{"no":"299","sido":"경기","name":"하남시보건소","address":"경기도 하남시 신장2동 520","lat":"37.5393555","lng":"127.2149791","callnum":"031-790-6555","weekday":"09:00 ~ 17:00","saturday":"09:00 ~ 17:00","sunday":"09:00 ~ 17:00","sample":"○"},
{"no":"300","sido":"경기","name":"화성시보건소","address":"경기도 화성시 향남읍 발안리  309","lat":"37.1293258","lng":"126.9048616","callnum":"031-5189-1200","weekday":"09:00 ~ 18:00","saturday":"미운영","sunday":"미운영","sample":"○"},
{"no":"301","sido":"경기","name":"원광종합병원","address":"경기도 화성시 화산북로 21","lat":"37.2100897","lng":"127.0080752","callnum":"031-8077-7220","weekday":"09:00 ~ 16:30","saturday":"09:00 ~ 11:00","sunday":"미운영","sample":"○"},
{"no":"302","sido":"경기","name":"화성중앙종합병원","address":"경기도 화성시 향남읍 발안로 5","lat":"37.1313537","lng":"126.9107747","callnum":"031-371-8114","weekday":"09:00 ~ 18:00","saturday":"미운영","sunday":"미운영","sample":"○"},
{"no":"303","sido":"경기","name":"한림대학교동탄성심병원","address":"경기도 화성시 큰재봉길 7","lat":"37.2165358","lng":"127.0799422","callnum":"031-8086-3616,2110","weekday":"08:30 ~ 17:00","saturday":"08:30 ~ 12:00","sunday":"미운영","sample":"○"},
{"no":"304","sido":"경기","name":"화성디에스병원","address":"경기도 화성시 남양읍 시청로160번길 46-13","lat":"37.1992311","lng":"126.825712","callnum":"1600-5982","weekday":"09:00 ~ 18:00","saturday":"09:00 ~ 18:00","sunday":"09:00 ~ 18:00","sample":"○"},
{"no":"305","sido":"경기","name":"영통구보건소","address":"경기도 수원시 영통구 영통동 영통로 396","lat":"37.2568229","lng":"127.0694645","callnum":"031-228-8785","weekday":"09:00 ~ 17:00","saturday":"09:00 ~ 13:00","sunday":"09:00 ~ 13:00","sample":"○"},
{"no":"306","sido":"경기","name":"아주대학교병원","address":"경기도 수원시 영통구 월드컵로164","lat":"37.2795738","lng":"127.0477479","callnum":"031-1688-6114","weekday":"00:00 ~ 00:00","saturday":"00:00 ~ 00:00","sunday":"00:00 ~ 00:00","sample":"○"},
{"no":"307","sido":"경기","name":"평택시송탄보건소","address":"경기도 평택시 서정동 산 12(서정로 295)","lat":"37.0662037","lng":"127.0660521","callnum":"031-8024-7325","weekday":"09:00 ~ 18:00","saturday":"09:00 ~ 13:00","sunday":"09:00 ~ 13:00","sample":"○"},
{"no":"308","sido":"경기","name":"박병원","address":"경기도 평택시 송탄로 33","lat":"37.0481177","lng":"127.0568641","callnum":"031-666-2600","weekday":"00:00 ~ 24:00","saturday":"00:00 ~ 24:00","sunday":"00:00 ~ 24:00","sample":"○"},
{"no":"309","sido":"경기","name":"일산동구보건소","address":"경기도 고양시 일산동구 마두동 1010번지","lat":"37.6558808","lng":"126.7760816","callnum":"031-8075-4135","weekday":"09:00 ~ 18:00","saturday":"09:00 ~ 18:00","sunday":"09:00 ~ 18:00","sample":"○"},
{"no":"310","sido":"경기","name":"국민건강보험공단일산병원","address":"경기도 고양시 일산동구 백석1동 일산로 100","lat":"37.64561259","lng":"126.7929886","callnum":"031-900-0750","weekday":"09:00 ~ 21:00","saturday":"09:00 ~ 18:00","sunday":"09:00 ~ 18:00","sample":"○"},
{"no":"311","sido":"경기","name":"동국대학교일산불교병원","address":"경기도 고양시 일산동구 동국로 27(식사동)","lat":"37.6764101","lng":"126.806397","callnum":"031-961-7000","weekday":"08:30 ~ 17:30","saturday":"08:30 ~ 11:30","sunday":"미운영","sample":"○"},
{"no":"312","sido":"경기","name":"일산복음병원","address":"경기도 고양시 일산동구 고양대로760","lat":"37.6818359","lng":"126.7801559","callnum":"031-929-0330,0331","weekday":"09:00 ~ 17:00","saturday":"09:00 ~ 12:00","sunday":"미운영","sample":"○"},
{"no":"313","sido":"경기","name":"수지구보건소","address":"경기도 용인시 수지구 포은대로 435","lat":"37.3220992","lng":"127.097612","callnum":"031-324-8566","weekday":"09:00 ~ 17:00","saturday":"09:00 ~ 13:00","sunday":"09:00 ~ 13:00","sample":"○"},
{"no":"314","sido":"경기","name":"남양주풍양보건소","address":"경기도 남양주시 진접읍 금곡리 1085, 풍양보건소","lat":"37.7113954","lng":"127.1889192","callnum":"031-590-5371","weekday":"09:30 ~ 17:00","saturday":"09:30 ~ 15:00","sunday":"09:30 ~ 15:00","sample":"○"},
{"no":"315","sido":"경기","name":"남양주한양병원","address":"경기도 남양주시 오남읍 양지로 47-55","lat":"37.6824973","lng":"127.2044826","callnum":"031-510-0114","weekday":"09:00 ~ 17:30","saturday":"09:00 ~ 12:30","sunday":"09:00 ~ 09:00","sample":"○"},
{"no":"316","sido":"경기","name":"현대병원","address":"경기도 남양주시 진접읍 봉현로 21","lat":"37.7154237","lng":"127.1798922","callnum":"031-574-9119","weekday":"09:00 ~ 09:00","saturday":"09:00 ~ 09:00","sunday":"09:00 ~ 09:00","sample":"○"},
{"no":"317","sido":"경기","name":"연천군보건의료원","address":"경기도 연천군 전곡읍 은대리 577-36","lat":"38.0234517","lng":"127.0609007","callnum":"031-839-4068","weekday":"09:00 ~ 18:00","saturday":"09:00 ~ 18:00","sunday":"09:00 ~ 18:00","sample":"○"},
{"no":"318","sido":"강원","name":"강릉시보건소","address":"강원도 강릉시 내곡동 413 강릉시보건소, 가동 강릉시보건소","lat":"37.7426409","lng":"128.8828485","callnum":"033-660-3050","weekday":"09:00 ~ 16:00","saturday":"09:00 ~ 16:00","sunday":"09:00 ~ 16:00","sample":"○"},
{"no":"319","sido":"강원","name":"강릉아산병원","address":"강원도 강릉시 사천면 방동길 38 ","lat":"37.81830602","lng":"128.8592904","callnum":"033-610-4111","weekday":"09:00 ~ 15:30","saturday":"미운영","sunday":"미운영","sample":"○"},
{"no":"320","sido":"강원","name":"강릉동인병원","address":"강원도 강릉시 포남동 강릉대로419번길 42","lat":"37.77441278","lng":"128.9071558","callnum":"033-651-6161","weekday":"00:00 ~ 24:00","saturday":"00:00 ~ 24:00","sunday":"00:00 ~ 24:00","sample":"○"},
{"no":"321","sido":"강원","name":"강릉고려병원","address":"강원도 강릉시 옥천동 옥가로 30","lat":"37.75901896","lng":"128.8998018","callnum":"033-649-0333","weekday":"10:00 ~ 16:00","saturday":"09:00 ~ 11:00","sunday":"미운영","sample":"○"},
{"no":"322","sido":"강원","name":"강릉의료원","address":"강원도 강릉시 중앙동 경강로 2007","lat":"37.74928335","lng":"128.8887361","callnum":"033-610-1200","weekday":"08:30 ~ 17:30","saturday":"미운영","sunday":"미운영","sample":"○"},
{"no":"323","sido":"강원","name":"고성군보건소","address":"강원도 고성군 간성읍 수성로 30","lat":"38.3773346","lng":"128.4720557","callnum":"033-681-4000","weekday":"09:00 ~ 18:00","saturday":"09:00 ~ 18:00","sunday":"09:00 ~ 18:00","sample":"○"},
{"no":"324","sido":"강원","name":"동해시보건소","address":"강원도 동해시 천곡동 840 보건소 동해시보건소","lat":"37.5228144","lng":"129.1170653","callnum":"033-530-2411","weekday":"10:00 ~ 16:00","saturday":"10:00 ~ 16:00","sunday":"10:00 ~ 16:00","sample":"○"},
{"no":"325","sido":"강원","name":"의료법인 동해동인병원","address":"강원도 동해시 하평로 26","lat":"37.5301128","lng":"129.1075007","callnum":"033-530-0400","weekday":"09:00 ~ 12:00","saturday":"09:00 ~ 12:00","sunday":"미운영","sample":"○"},
{"no":"326","sido":"강원","name":"근로복지공단 동해병원","address":"강원도  동해시 하평로 11","lat":"37.532242","lng":"129.1062424","callnum":"033-530-3885","weekday":"14:00 ~ 17:00","saturday":"14:00 ~ 17:00","sunday":"14:00 ~ 17:00","sample":"○"},
{"no":"327","sido":"강원","name":"삼척시보건소","address":"강원도 삼척시 남양동 347-4","lat":"37.4437367","lng":"129.1721895","callnum":"033-570-4649","weekday":"09:00 ~ 16:00","saturday":"10:00 ~ 16:00","sunday":"10:00 ~ 16:00","sample":"○"},
{"no":"328","sido":"강원","name":"강원도 삼척의료원","address":"강원도 삼척시 오십천로 418","lat":"37.4401965","lng":"129.1638963","callnum":"033-570-7545","weekday":"09:00 ~ 17:00","saturday":"10:00 ~ 14:00","sunday":"10:00 ~ 14:00","sample":"○"},
{"no":"329","sido":"강원","name":"속초시보건소","address":"강원도 속초시 동해대로 4229(생활체육관 주차장 내)","lat":"38.196539","lng":"128.5771187","callnum":"033-639-1531","weekday":"09:00 ~ 17:00","saturday":"09:00 ~ 17:00","sunday":"09:00 ~ 17:00","sample":"○"},
{"no":"330","sido":"강원","name":"강원도속초의료원","address":"강원도 속초시 영랑호반길 3","lat":"38.2164833","lng":"128.5886161","callnum":"033-630-6122","weekday":"00:00 ~ 24:00","saturday":"00:00 ~ 24:00","sunday":"00:00 ~ 24:00","sample":"○"},
{"no":"331","sido":"강원","name":"속초보광병원","address":"강원도 속초시 중앙로 11","lat":"38.1980637","lng":"128.578535","callnum":"033-639-8557","weekday":"09:00 ~ 17:30","saturday":"09:00 ~ 12:30","sunday":"미운영","sample":"○"},
{"no":"332","sido":"강원","name":"양구군보건소","address":"강원도 양구군 양구읍 하리 34-5 양구군보건소","lat":"38.1098408","lng":"127.9901253","callnum":"033-480-2550","weekday":"09:00 ~ 18:00","saturday":"09:00 ~ 18:00","sunday":"09:00 ~ 18:00","sample":"○"},
{"no":"333","sido":"강원","name":"양구성심병원","address":"강원도 양구군 양구읍 중심로 160","lat":"38.10448","lng":"127.9911978","callnum":"033-480-8800","weekday":"00:00 ~ 24:00","saturday":"00:00 ~ 24:00","sunday":"00:00 ~ 24:00","sample":"○"},
{"no":"334","sido":"강원","name":"양양군보건소","address":"강원도 양양군 양양읍 연창리 203-5 양양군보건소 양양군보건소","lat":"38.0778212","lng":"128.6273966","callnum":"033-670-2119","weekday":"09:00 ~ 18:00","saturday":"09:00 ~ 18:00","sunday":"09:00 ~ 18:00","sample":"○"},
{"no":"335","sido":"강원","name":"영월군보건소","address":"강원도 영월군 영월읍 하송로 44 영월군보건소","lat":"37.1841488","lng":"128.4634469","callnum":"033-370-1800","weekday":"09:00 ~ 18:00","saturday":"09:00 ~ 18:00","sunday":"09:00 ~ 18:00","sample":"○"},
{"no":"336","sido":"강원","name":"영월의료원","address":"강원도 영월군 영월읍 중앙1로 59 영월의료원","lat":"37.186296","lng":"128.4651157","callnum":"033-370-9129","weekday":"00:00 ~ 24:00","saturday":"00:00 ~ 24:00","sunday":"00:00 ~ 24:00","sample":"○"},
{"no":"337","sido":"강원","name":"원주시보건소","address":"강원도 원주시 일산동 211","lat":"37.35157","lng":"127.9467342","callnum":"033-737-4065","weekday":"09:00 ~ 18:00","saturday":"10:00 ~ 15:00","sunday":"10:00 ~ 15:00","sample":"○"},
{"no":"338","sido":"강원","name":"연세대학교 원주세브란스기독병원","address":"강원도 원주시 일산로 20","lat":"37.3487852","lng":"127.9459235","callnum":"033-741-1641","weekday":"09:00 ~ 17:30","saturday":"미운영","sunday":"미운영","sample":"○"},
{"no":"339","sido":"강원","name":"원주의료원","address":"강원도 원주시 서원대로 387","lat":"37.3330711","lng":"127.9486431","callnum":"033-760-4701","weekday":"09:00 ~ 17:30","saturday":"미운영","sunday":"미운영","sample":"○"},
{"no":"340","sido":"강원","name":"인제군보건소","address":"강원도 인제군 인제읍 남북리 789-1","lat":"38.0632562","lng":"128.168503","callnum":"033-461-2425","weekday":"09:00 ~ 17:00","saturday":"09:00 ~ 16:00","sunday":"09:00 ~ 16:00","sample":"○"},
{"no":"341","sido":"강원","name":"정선군보건소","address":"강원도 정선군 정선읍 녹송로 33","lat":"37.3799714","lng":"128.6714009","callnum":"033-560-2739","weekday":"09:00 ~ 16:00","saturday":"09:00 ~ 16:00","sunday":"09:00 ~ 16:00","sample":"○"},
{"no":"342","sido":"강원","name":"근로복지공단정선병원","address":"강원도 정선군 정선읍 봉양리 430","lat":"37.38323041","lng":"128.6587563","callnum":"033-560-7110","weekday":"00:00 ~ 24:00","saturday":"00:00 ~ 24:00","sunday":"00:00 ~ 24:00","sample":"○"},
{"no":"343","sido":"강원","name":"정선군립병원","address":"강원도 정선군 사북읍 지장천로 727","lat":"37.2260918","lng":"128.8265896","callnum":"033-592-3121","weekday":"10:00 ~ 11:30","saturday":"미운영","sunday":"미운영","sample":"○"},
{"no":"344","sido":"강원","name":"철원군보건소","address":"강원도 철원군 갈말읍 군탄리 960-2","lat":"38.1481456","lng":"127.3028521","callnum":"033-450-5950","weekday":"09:00 ~ 18:00","saturday":"09:00 ~ 18:00","sunday":"09:00 ~ 18:00","sample":"○"},
{"no":"345","sido":"강원","name":"철원병원","address":"강원도 철원군 갈말읍 명성로 208","lat":"38.1502317","lng":"127.3082403","callnum":"033-450-3300","weekday":"09:00 ~ 11:00","saturday":"미운영","sunday":"미운영","sample":"○"},
{"no":"346","sido":"강원","name":"춘천시보건소","address":"강원도 춘천시 중앙로3가 67","lat":"37.8755894","lng":"127.7203471","callnum":"033-250-4688","weekday":"09:00 ~ 17:00","saturday":"09:00 ~ 17:00","sunday":"09:00 ~ 17:00","sample":"○"},
{"no":"347","sido":"강원","name":"강원대학교병원","address":"강원도 춘천시 백령로 156","lat":"37.8748876","lng":"127.7445841","callnum":"033-258-2071","weekday":"09:00 ~ 16:30","saturday":"미운영","sunday":"미운영","sample":"○"},
{"no":"348","sido":"강원","name":"한림대학교춘천성심병원","address":"강원도 춘천시 삭주로 77","lat":"37.8842934","lng":"127.7400384","callnum":"033-240-5815","weekday":"08:30 ~ 17:00","saturday":"08:30 ~ 12:00","sunday":"미운영","sample":"○"},
{"no":"349","sido":"강원","name":"태백시보건소","address":"강원도 태백시 황지동 20-8","lat":"37.1766554","lng":"128.992367","callnum":"033-552-4000","weekday":"08:00 ~ 18:00","saturday":"09:00 ~ 17:00","sunday":"09:00 ~ 17:00","sample":"○"},
{"no":"350","sido":"강원","name":"근로복지공단태백병원","address":"강원도 태백시 보드미길8","lat":"37.1040245","lng":"129.0043791","callnum":"033-580-3119","weekday":"00:00 ~ 00:00","saturday":"00:00 ~ 00:00","sunday":"00:00 ~ 00:00","sample":"○"},
{"no":"351","sido":"강원","name":"홍천군보건소","address":"강원도 홍천군 홍천읍 희망리 350 홍천군보건소","lat":"37.690162","lng":"127.8769864","callnum":"033-430-4024","weekday":"09:00 ~ 17:00","saturday":"09:00 ~ 17:00","sunday":"09:00 ~ 17:00","sample":"○"},
{"no":"352","sido":"강원","name":"홍천아산병원","address":"강원도 홍천군 산림공원 1길 17","lat":"37.6906566","lng":"127.8946288","callnum":"033-430-5119","weekday":"00:00 ~ 24:00","saturday":"00:00 ~ 24:00","sunday":"00:00 ~ 24:00","sample":"○"},
{"no":"353","sido":"강원","name":"횡성군보건소","address":"강원도 횡성군 횡성읍 읍하리 598 횡성보건소","lat":"37.4871599","lng":"127.9844407","callnum":"033-340-5707","weekday":"09:00 ~ 17:00","saturday":"09:00 ~ 16:00","sunday":"09:00 ~ 16:00","sample":"○"},
{"no":"354","sido":"강원","name":"횡성대성병원","address":"강원도 횡성군 횡성읍 횡성로275","lat":"37.4783646","lng":"127.9798633","callnum":"033-343-0901","weekday":"09:00 ~ 17:00","saturday":"미운영","sunday":"미운영","sample":"○"},
{"no":"355","sido":"강원","name":"평창군보건의료원","address":"강원도 평창군 평창읍 노성로 11 평창군보건의료원","lat":"37.3689497","lng":"128.3907436","callnum":"033-330-4800","weekday":"09:00 ~ 18:00","saturday":"09:00 ~ 18:00","sunday":"09:00 ~ 18:00","sample":"○"},
{"no":"356","sido":"강원","name":"화천군보건의료원","address":"강원도 화천군 화천읍 강변로 111","lat":"38.1072917","lng":"127.7091123","callnum":"033-442-4424","weekday":"09:00 ~ 18:00","saturday":"09:00 ~ 18:00","sunday":"09:00 ~ 18:00","sample":"○"},
{"no":"357","sido":"충북","name":"괴산군보건소","address":"충청북도 괴산군 괴산읍 동부리 641 괴산군보건소","lat":"36.8079343","lng":"127.7964307","callnum":"043-832-4000","weekday":"09:00 ~ 18:00","saturday":"09:00 ~ 18:00","sunday":"09:00 ~ 18:00","sample":"○"},
{"no":"358","sido":"충북","name":"괴산성모병원","address":"충청북도 괴산군 괴산읍 임꺽정로 116","lat":"36.8156092","lng":"127.7843501","callnum":"043-830-5400","weekday":"00:00 ~ 24:00","saturday":"00:00 ~ 24:00","sunday":"00:00 ~ 24:00","sample":"○"},
{"no":"359","sido":"충북","name":"단양군보건소","address":"충청북도 단양군 단양읍 삼봉로 53","lat":"36.9816361","lng":"128.3502709","callnum":"043-420-3201","weekday":"10:00 ~ 16:00","saturday":"10:00 ~ 16:00","sunday":"10:00 ~ 16:00","sample":"○"},
{"no":"360","sido":"충북","name":"단양군립노인요양병원","address":"충청북도 단양군 단양읍 별곡6길 10","lat":"36.9871312","lng":"128.3687752","callnum":"043-423-8844","weekday":"00:00 ~ 24:00","saturday":"00:00 ~ 24:00","sunday":"00:00 ~ 24:00","sample":"○"},
{"no":"361","sido":"충북","name":"보은군보건소","address":"충청북도 보은군 보은읍 동광길 50","lat":"36.4865783","lng":"127.7162134","callnum":"043-540-5619","weekday":"09:00 ~ 18:00","saturday":"09:00 ~ 18:00","sunday":"09:00 ~ 18:00","sample":"○"},
{"no":"362","sido":"충북","name":"보은한양병원","address":"충청북도 보은군 보은읍 보은로 102","lat":"36.4832756","lng":"127.7182455","callnum":"043-544-1500","weekday":"00:00 ~ 24:00","saturday":"00:00 ~ 24:00","sunday":"00:00 ~ 24:00","sample":"○"},
{"no":"363","sido":"충북","name":"영동군보건소","address":"충청북도 영동군 영동읍 매천리 444-1","lat":"36.1684793","lng":"127.775988","callnum":"043-740-5612","weekday":"09:00 ~ 18:00","saturday":"09:00 ~ 18:00","sunday":"09:00 ~ 18:00","sample":"○"},
{"no":"364","sido":"충북","name":"영동병원","address":"충청북도 영동군 영동읍 대학로 106","lat":"36.1851894","lng":"127.7809991","callnum":"043-740-9000","weekday":"00:00 ~ 24:00","saturday":"00:00 ~ 24:00","sunday":"00:00 ~ 24:00","sample":"○"},
{"no":"365","sido":"충북","name":"옥천군보건소","address":"충청북도 옥천군 옥천읍 삼양리 161-45 관공서(옥천군보건소)","lat":"36.3041717","lng":"127.5702866","callnum":"043-730-2116","weekday":"09:00 ~ 16:00","saturday":"09:00 ~ 16:00","sunday":"09:00 ~ 16:00","sample":"○"},
{"no":"366","sido":"충북","name":"옥천성모병원","address":"충청북도 옥천군 옥천읍 성왕로 1195","lat":"36.3139747","lng":"127.572048","callnum":"043-730-7000","weekday":"00:00 ~ 24:00","saturday":"00:00 ~ 24:00","sunday":"00:00 ~ 24:00","sample":"○"},
{"no":"367","sido":"충북","name":"음성군보건소","address":"충청북도 음성군 음성읍 읍내리 406-4","lat":"36.9285583","lng":"127.6888225","callnum":"043-872-2136","weekday":"09:00 ~ 17:00","saturday":"09:00 ~ 17:00","sunday":"09:00 ~ 17:00","sample":"○"},
{"no":"368","sido":"충북","name":"금왕태성병원","address":"충청북도 음성군 금왕읍 음성로1230번길 10","lat":"36.9975052","lng":"127.5984369","callnum":"043-883-8800","weekday":"08:30 ~ 16:30","saturday":"08:30 ~ 12:30","sunday":"미운영","sample":"○"},
{"no":"369","sido":"충북","name":"제천시보건소","address":"충청북도 제천시 청전동 110","lat":"37.1492282","lng":"128.2156039","callnum":"043-646-2720","weekday":"10:00 ~ 16:00","saturday":"10:00 ~ 13:00","sunday":"미운영","sample":"○"},
{"no":"370","sido":"충북","name":"제천 서울병원","address":"충청북도 제천시 숭문로 57","lat":"37.1387287","lng":"128.2061642","callnum":"043-642-7609","weekday":"00:00 ~ 24:00","saturday":"00:00 ~ 24:00","sunday":"00:00 ~ 24:00","sample":"○"},
{"no":"371","sido":"충북","name":"명지병원(제천)","address":"충청북도 제천시 내토로 991","lat":"37.1635034","lng":"128.2339525","callnum":"043-640-8373","weekday":"00:00 ~ 24:00","saturday":"00:00 ~ 24:00","sunday":"00:00 ~ 24:00","sample":"○"},
{"no":"372","sido":"충북","name":"증평군보건소","address":"충청북도 증평군 증평읍 내성리 57-2 증평군보건소","lat":"36.7743442","lng":"127.5867659","callnum":"043-835-4220","weekday":"09:00 ~ 18:00","saturday":"09:00 ~ 16:00","sunday":"미운영","sample":"○"},
{"no":"373","sido":"충북","name":"진천군보건소","address":"충청북도 진천군 진천읍 벽암리 570 진천군보건소 본관","lat":"36.8606336","lng":"127.4396333","callnum":"043-539-7771","weekday":"09:00 ~ 17:00","saturday":"09:00 ~ 17:00","sunday":"09:00 ~ 17:00","sample":"○"},
{"no":"374","sido":"충북","name":"건명의료재단 진천성모병원","address":"충청북도 진천군 진천읍 중앙북로 36","lat":"36.85902201","lng":"127.4398801","callnum":"043-533-1710","weekday":"00:00 ~ 24:00","saturday":"00:00 ~ 24:00","sunday":"00:00 ~ 24:00","sample":"○"},
{"no":"375","sido":"충북","name":"청주시상당보건소","address":"충청북도 청원군 남일면 효촌리 92-2","lat":"36.5882425","lng":"127.5054087","callnum":"043-201-4392","weekday":"09:00 ~ 18:00","saturday":"09:00 ~ 18:00","sunday":"09:00 ~ 18:00","sample":"○"},
{"no":"376","sido":"충북","name":"청주한국병원","address":"충청북도 청주시 상당구 단재로 106","lat":"36.61972","lng":"127.4963756","callnum":"043-222-7000","weekday":"09:00 ~ 16:00","saturday":"미운영","sunday":"미운영","sample":"○"},
{"no":"377","sido":"충북","name":"청주효성병원","address":"충청북도 청주시 상당구 쇠내로 16","lat":"36.6244474","lng":"127.4954392","callnum":"043-221-5000","weekday":"08:30 ~ 17:30","saturday":"미운영","sunday":"미운영","sample":"○"},
{"no":"378","sido":"충북","name":"청주시흥덕보건소","address":"충청북도 청주시 흥덕구 비하동(강서제1동) 792 흥덕구 보건소 흥덕보건소","lat":"36.6300836","lng":"127.4265252","callnum":"043-201-3342","weekday":"09:0 ~ 18:0","saturday":"09:0 ~ 13:0","sunday":"09:0 ~ 13:0","sample":"○"},
{"no":"379","sido":"충북","name":"한마음의료재단하나병원","address":"충청북도 청주시 흥덕구 2순환로 1262","lat":"36.6235602","lng":"127.4305649","callnum":"043-230-6191","weekday":"09:30 ~ 15:30","saturday":"09:30 ~ 10:30","sunday":"미운영","sample":"○"},
{"no":"380","sido":"충북","name":"베스티안병원","address":"충청북도 흥덕구 오송읍 오송생명1로 191","lat":"36.6364268","lng":"127.3216446","callnum":"043-904-8711","weekday":"09:00 ~ 18:00","saturday":"09:00 ~ 13:00","sunday":"미운영","sample":"○"},
{"no":"381","sido":"충북","name":"청주시서원보건소","address":"충청북도 청주시 서원구 사직동(사직1동) 888 서원구청 지하1층 서원보건소","lat":"36.6372416","lng":"127.4698599","callnum":"043-201-3207, 3208","weekday":"09:00 ~ 18:00","saturday":"13:00 ~ 18:00","sunday":"13:00 ~ 18:00","sample":"○"},
{"no":"382","sido":"충북","name":"충청북도 청주의료원","address":"충청북도 청주시 서원구 흥덕로 48","lat":"36.6404384","lng":"127.4733606","callnum":"043-279-0400","weekday":"00:00 ~ 24:00","saturday":"00:00 ~ 24:00","sunday":"00:00 ~ 24:00","sample":"○"},
{"no":"383","sido":"충북","name":"충주시보건소","address":"충청북도 충주시 문화동 1655 충주시 건강복지타운 충주시 보건소","lat":"36.9712358","lng":"127.9279747","callnum":"043-850-4431","weekday":"09:00 ~ 18:00","saturday":"09:00 ~ 18:00","sunday":"09:00 ~ 18:00","sample":"○"},
{"no":"384","sido":"충북","name":"건국대학교충주병원","address":"충청북도 충주시 국원대로82","lat":"36.9788872","lng":"127.9288211","callnum":"043-840-6513","weekday":"09:00 ~ 17:00","saturday":"08:30 ~ 12:00","sunday":"미운영","sample":"○"},
{"no":"385","sido":"충북","name":"충주의료원","address":"충청북도 충주시 안림로239-50","lat":"36.9794906","lng":"127.9703469","callnum":"043-871-0118","weekday":"00:00 ~ 24:00","saturday":"00:00 ~ 24:00","sunday":"00:00 ~ 24:00","sample":"○"},
{"no":"386","sido":"충북","name":"청주시청원보건소","address":"충청북도 청주시 청원구 오창읍 각리 639-1","lat":"36.7100878","lng":"127.4312927","callnum":"043-201-3442","weekday":"09:00 ~ 18:00","saturday":"09:00 ~ 13:00","sunday":"09:00 ~ 13:00","sample":"○"},
{"no":"387","sido":"충북","name":"청주성모병원","address":"충청북도 청주시 청원구 주성로173-19","lat":"36.673937","lng":"127.4859424","callnum":"043-219-8000","weekday":"09:00 ~ 16:30","saturday":"미운영","sunday":"미운영","sample":"○"},
{"no":"388","sido":"충남","name":"계룡시보건소","address":"충청남도 계룡시 금암동 10-5 계룡시보건소","lat":"36.2730671","lng":"127.2500625","callnum":"042-840-3507","weekday":"09:30 ~ 16:00","saturday":"09:30 ~ 16:00","sunday":"09:30 ~ 16:00","sample":"○"},
{"no":"389","sido":"충남","name":"공주시보건소","address":"충청남도 공주시 봉황로 123","lat":"36.4571172","lng":"127.120655","callnum":"041-840-8600","weekday":"09:00 ~ 18:00","saturday":"09:00 ~ 18:00","sunday":"09:00 ~ 18:00","sample":"○"},
{"no":"390","sido":"충남","name":"공주의료원","address":"충청남도 공주시 무령로 77","lat":"36.4588819","lng":"127.1095009","callnum":"041-962-1111","weekday":"00:00 ~ 00:00","saturday":"00:00 ~ 00:00","sunday":"00:00 ~ 00:00","sample":"○"},
{"no":"391","sido":"충남","name":"금산군보건소","address":"충청남도 금산군 금산읍 중도리 203-1  금산군보건소","lat":"36.1125955","lng":"127.4916133","callnum":"041-751-6157","weekday":"09:00 ~ 18:00","saturday":"09:00 ~ 18:00","sunday":"09:00 ~ 18:00","sample":"○"},
{"no":"392","sido":"충남","name":"논산시보건소","address":"충청남도 논산시 관촉동(취암동) 327-2","lat":"36.1955805","lng":"127.1025292","callnum":"041-746-8091","weekday":"09:00 ~ 18:00","saturday":"09:0 ~ 18:00","sunday":"09:00 ~ 18:00","sample":"○"},
{"no":"393","sido":"충남","name":"의료법인백제병원","address":"충청남도 논산시 시민로294번길 14","lat":"36.1924195","lng":"127.094471","callnum":"041-730-8888","weekday":"00:00 ~ 23:59","saturday":"00:00 ~ 23:59","sunday":"00:00 ~ 23:59","sample":"○"},
{"no":"394","sido":"충남","name":"당진시보건소","address":"충청남도 당진시 채운동 1040","lat":"36.8872826","lng":"126.6299607","callnum":"041-360-6004","weekday":"09:00 ~ 18:00","saturday":"09:00 ~ 18:00","sunday":"09:00 ~ 18:00","sample":"○"},
{"no":"395","sido":"충남","name":"당진종합병원","address":"충청남도 당진시 반촌로 5-15","lat":"36.9044745","lng":"126.6840618","callnum":"070-7332-8248","weekday":"00:00 ~ 24:00","saturday":"00:00 ~ 24:00","sunday":"00:00 ~ 24:00","sample":"○"},
{"no":"396","sido":"충남","name":"보령시보건소","address":"충청남도 보령시 남포면 보령남로 234","lat":"36.3244101","lng":"126.6020268","callnum":"041-930-0900","weekday":"09:00 ~ 18:00","saturday":"09:00 ~ 18:00","sunday":"09:00 ~ 18:00","sample":"○"},
{"no":"397","sido":"충남","name":"보령아산병원","address":"충청남도 보령시 죽성로 136","lat":"36.3806514","lng":"126.6236446","callnum":"041-930-5333","weekday":"09:00 ~ 16:00","saturday":"미운영","sunday":"미운영","sample":"○"},
{"no":"398","sido":"충남","name":"부여군보건소","address":"충청남도 부여군 부여읍 성왕로 205","lat":"36.2831134","lng":"126.9095722","callnum":"041-830-8600","weekday":"09:00 ~ 18:00","saturday":"09:00 ~ 18:00","sunday":"09:00 ~ 18:00","sample":"○"},
{"no":"399","sido":"충남","name":"건양대학교 부여병원","address":"충청남도 부여군 부여읍 계백로 200","lat":"36.2751104","lng":"126.9021002","callnum":"041-837-1200","weekday":"06:00 ~ 22:00","saturday":"06:00 ~ 22:00","sunday":"06:00 ~ 22:00","sample":"○"},
{"no":"400","sido":"충남","name":"성요셉연합의원","address":"충청남도 부여군 부여읍 사비로 78","lat":"36.2795345","lng":"126.9108649","callnum":"041-835-7582","weekday":"08:00 ~ 17:00","saturday":"08:00 ~ 12:00","sunday":"미운영","sample":"○"},
{"no":"401","sido":"충남","name":"서산시보건소","address":"충청남도 서산시 예천동(석남동) 496-1 서산시보건소","lat":"36.7744264","lng":"126.444505","callnum":"041-661-8100","weekday":"09:00 ~ 18:00","saturday":"09:00 ~ 18:00","sunday":"09:00 ~ 18:00","sample":"○"},
{"no":"402","sido":"충남","name":"충청남도서산의료원","address":"충청남도 서산시 중앙로 149","lat":"36.7757248","lng":"126.4653808","callnum":"041-689-7119","weekday":"09:00 ~ 12:00","saturday":"미운영","sunday":"미운영","sample":"○"},
{"no":"403","sido":"충남","name":"서천군보건소","address":"충청남도 서천군 서천읍 군사리 799 서천군보건소","lat":"36.082193","lng":"126.6896186","callnum":"041-950-6940","weekday":"09:00 ~ 18:00","saturday":"09:00 ~ 18:00","sunday":"09:00 ~ 18:00","sample":"○"},
{"no":"404","sido":"충남","name":"서해병원","address":"충청남도 서천군 서천읍 서천로 184","lat":"36.0844891","lng":"126.6877818","callnum":"041-951-8282","weekday":"00:00 ~ 24:00","saturday":"00:00 ~ 24:00","sunday":"00:00 ~ 24:00","sample":"○"},
{"no":"405","sido":"충남","name":"아산시보건소","address":"충청남도 아산시 남부로 370-24","lat":"36.768359","lng":"127.0211986","callnum":"1899-7425","weekday":"09:00 ~ 17:00","saturday":"09:00 ~ 17:00","sunday":"09:00 ~ 17:00","sample":"○"},
{"no":"406","sido":"충남","name":"아산충무병원","address":"충청남도 아산시 문화로 381","lat":"36.7791431","lng":"127.0197732","callnum":"041-536-6666","weekday":"08:30 ~ 17:30","saturday":"08:30 ~ 13:00","sunday":"00:00 ~ 00:00","sample":"○"},
{"no":"407","sido":"충남","name":"현대병원","address":"충청남도 아산시 시민로 388","lat":"36.7831232","lng":"127.0009907","callnum":"041-546-3636","weekday":"09:00 ~ 16:00","saturday":"09:00 ~ 11:00","sunday":"00:00 ~ 00:00","sample":"○"},
{"no":"408","sido":"세종","name":"세종특별자치시보건소","address":"세종특별자치시 조치원읍 건강길 16","lat":"36.6056132","lng":"127.2964963","callnum":"044-301-2000","weekday":"09:30 ~ 17:00","saturday":"미운영","sunday":"미운영","sample":"○"},
{"no":"409","sido":"세종","name":"세종 충남대학교병원","address":"세종특별자치시 보듬7로20 세종충청남도대학교병원","lat":"36.5195125","lng":"127.257941","callnum":"044-995-3400(~2)","weekday":"08:30 ~ 17:30","saturday":"미운영","sunday":"미운영","sample":"○"},
{"no":"410","sido":"충남","name":"예산군보건소","address":"충청남도 예산군 예산읍 군청로 22","lat":"36.6810639","lng":"126.8452503","callnum":"041-339-6062","weekday":"09:00 ~ 18:00","saturday":"09:00 ~ 18:00","sunday":"09:00 ~ 18:00","sample":"○"},
{"no":"411","sido":"충남","name":"예산종합병원","address":"충청남도 예산군 예산읍 금오대로 94","lat":"36.6910224","lng":"126.8379064","callnum":"041-330-4000","weekday":"00:00 ~ 24:00","saturday":"00:00 ~ 24:00","sunday":"00:00 ~ 24:00","sample":"○"},
{"no":"412","sido":"충남","name":"천안시서북구보건소","address":"충청남도 천안시 서북구 불당동 234-1 천안시청","lat":"36.8148205","lng":"127.1140365","callnum":"041-521-2661","weekday":"9:00 ~ 18:00","saturday":"9:00 ~ 18:00","sunday":"9:00 ~ 18:00","sample":"○"},
{"no":"413","sido":"충남","name":"의료법인 영서의료재단 천안충무병원","address":"충청남도 천안시 서북구 다가말3길 8","lat":"36.7974037","lng":"127.1314935","callnum":"041-570-7555","weekday":"8:30 ~ 16:30","saturday":"8:30 ~ 12:00","sunday":"미운영","sample":"○"},
{"no":"414","sido":"충남","name":"학교법인동은학원 순천향대학교부속천안병원","address":"충청남도 천안시 동남구 순천향6길 31","lat":"36.8029996","lng":"127.1364059","callnum":"1577-7523","weekday":"9:00 ~ 17:00","saturday":"9:00 ~ 12:00","sunday":"미운영","sample":"○"},
{"no":"415","sido":"충남","name":"충청남도천안의료원","address":"충청남도 천안시 동남구 충절로 537","lat":"36.7752778","lng":"127.1794086","callnum":"041-570-7033","weekday":"9:00 ~ 17:00","saturday":"14:30 ~ 17:00","sunday":"14:30 ~ 17:00","sample":"○"},
{"no":"416","sido":"충남","name":"단국대학교의과대학부속병원","address":"충청남도 천안시 동남구 망향로 201","lat":"36.8425153","lng":"127.1731408","callnum":"041-550-6866","weekday":"8:30 ~ 17:00","saturday":"미운영","sunday":"미운영","sample":"○"},
{"no":"417","sido":"충남","name":"천안우리병원","address":"충청남도 천안시 동남구 남부대로 350 (청당동","lat":"36.7810154","lng":"127.155821","callnum":"041-590-9000","weekday":"8:00 ~ 17:00","saturday":"8:00 ~ 12:00","sunday":"미운영","sample":"○"},
{"no":"418","sido":"충남","name":"천안시동남구보건소","address":"충청남도 천안시 동남구 문화동 112-14","lat":"36.8074496","lng":"127.1511826","callnum":"041-521-2661","weekday":"9:0 ~ 18:0","saturday":"9:0 ~ 18:0","sunday":"9:0 ~ 18:0","sample":"○"},
{"no":"419","sido":"충남","name":"홍성군보건소","address":"충청남도 홍성군 홍성읍 오관리 474-7 홍성군보건소","lat":"36.5968177","lng":"126.6628414","callnum":"041-632-2588","weekday":"09:00 ~ 18:00","saturday":"09:00 ~ 18:00","sunday":"09:00 ~ 18:00","sample":"○"},
{"no":"420","sido":"충남","name":"홍성의료원","address":"충청남도 홍성군 홍성읍 조양로 224","lat":"36.5987584","lng":"126.6744199","callnum":"041-630-6119","weekday":"08:30 ~ 17:30","saturday":"미운영","sunday":"미운영","sample":"○"},
{"no":"421","sido":"충남","name":"청양군보건의료원","address":"충청남도 청양군 청양읍 읍내리 261-1 청양군보건의료원","lat":"36.4551377","lng":"126.8047446","callnum":"041-940-4515","weekday":"08:30 ~ 17:30","saturday":"미운영","sunday":"미운영","sample":"○"},
{"no":"422","sido":"충남","name":"태안군보건의료원","address":"충청남도 태안군 태안읍 평천리 698-6","lat":"36.7517484","lng":"126.3233093","callnum":"041-671-5224","weekday":"09:00 ~ 18:00","saturday":"09:00 ~ 17:00","sunday":"09:00 ~ 17:00","sample":"○"},
{"no":"423","sido":"전북","name":"고창군보건소","address":"전라북도 고창군 고창읍 율계리 101(전봉준로 90)","lat":"35.443707","lng":"126.6832524","callnum":"063-560-8716","weekday":"09:00 ~ 18:00","saturday":"09:00 ~ 18:00","sunday":"09:00 ~ 18:00","sample":"○"},
{"no":"424","sido":"전북","name":"고창병원","address":"전라북도 고창군 고창읍 화신1길 9","lat":"35.436417","lng":"126.69336","callnum":"063-560-5600","weekday":"00:00 ~ 24:00","saturday":"00:00 ~ 24:00","sunday":"00:00 ~ 24:00","sample":"○"},
{"no":"425","sido":"전북","name":"군산시보건소","address":"전라북도 군산시 수송동 851-1","lat":"35.9646513","lng":"126.7202765","callnum":"063-463-4000","weekday":"9:00 ~ 18:00","saturday":"09:00 ~ 18:00","sunday":"9:00 ~ 18:00","sample":"○"},
{"no":"426","sido":"전북","name":"군산의료원","address":"전라북도 군산시 의료원로27","lat":"35.9545829","lng":"126.7117153","callnum":"063-472-5119","weekday":"00:00 ~ 24:00","saturday":"00:00 ~ 24:00","sunday":"00:00 ~ 24:00","sample":"○"},
{"no":"427","sido":"전북","name":"동군산병원","address":"전라북도 군산시 조촌로 149","lat":"35.97749531","lng":"126.7371805","callnum":"063-440-0516","weekday":"00:00 ~ 24:00","saturday":"00:00 ~ 24:00","sunday":"00:00 ~ 24:00","sample":"○"},
{"no":"428","sido":"전북","name":"김제시보건소","address":"전라북도 김제시 요촌동 423-2","lat":"35.800733","lng":"126.8833299","callnum":"063-540-4553","weekday":"09:00 ~ 20:00","saturday":"09:00 ~ 20:00","sunday":"09:00 ~ 20:00","sample":"○"},
{"no":"429","sido":"전북","name":"남원시보건소","address":"전라북도 남원시 조산동(금동) 455 남원시보건소","lat":"35.3975614","lng":"127.3636303","callnum":"063-625-1339","weekday":"09:00 ~ 18:00","saturday":"09:00 ~ 18:00","sunday":"09:00 ~ 18:00","sample":"○"},
{"no":"430","sido":"전북","name":"남원의료원","address":"전라북도 남원시 충정로 365","lat":"35.4329035","lng":"127.4058751","callnum":"063-620-1347","weekday":"08:30 ~ 17:30","saturday":"미운영","sunday":"미운영","sample":"○"},
{"no":"431","sido":"전북","name":"부안군보건소","address":"전라북도 부안군 부안읍 봉덕리 551-2","lat":"35.722871","lng":"126.7358153","callnum":"063-580-3062","weekday":"09:00 ~ 18:00","saturday":"09:00 ~ 18:00","sunday":"09:00 ~ 18:00","sample":"○"},
{"no":"432","sido":"전북","name":"부안성모병원","address":"전라북도 부안군 부안읍 오정2길 24","lat":"35.7247142","lng":"126.7345372","callnum":"063-581-5100","weekday":"00:00 ~ 24:00","saturday":"00:00 ~ 24:00","sunday":"00:00 ~ 24:00","sample":"○"},
{"no":"433","sido":"전북","name":"완주군보건소","address":"전라북도 완주군 삼례읍 삼봉로 215-20 완주군보건소","lat":"35.92186395","lng":"127.092745","callnum":"063-290-3015","weekday":"09:00 ~ 18:00","saturday":"09:00 ~ 18:00","sunday":"09:00 ~ 18:00","sample":"○"},
{"no":"434","sido":"전북","name":"익산시보건소","address":"전라북도 익산시 무왕로 975","lat":"35.9609318","lng":"126.9664842","callnum":"063-859-7487","weekday":"09:00 ~ 18:00","saturday":"09:00 ~ 18:00","sunday":"09:00 ~ 18:00","sample":"○"},
{"no":"435","sido":"전북","name":"원광대학교병원","address":"전라북도 익산시 무왕로 895","lat":"35.9656666","lng":"126.9595489","callnum":"063-859-1165","weekday":"00:00 ~ 24:00","saturday":"00:00 ~ 24:00","sunday":"00:00 ~ 24:00","sample":"○"},
{"no":"436","sido":"전북","name":"익산병원","address":"전라북도 익산시 무왕로 969","lat":"35.9616887","lng":"126.9664633","callnum":"063-840-9112","weekday":"00:00 ~ 24:00","saturday":"00:00 ~ 24:00","sunday":"00:00 ~ 24:00","sample":"○"},
{"no":"437","sido":"전북","name":"대자인병원","address":"전라북도 전주시 덕진구 견훤로 390","lat":"35.8459483","lng":"127.1533777","callnum":"063-240-2000","weekday":"00:00 ~ 24:00","saturday":"00:00 ~ 24:00","sunday":"미운영","sample":"○"},
{"no":"438","sido":"전북","name":"전주병원","address":"전라북도 전주시 완산구 한두평3길 13","lat":"35.8151261","lng":"127.1247791","callnum":"063-220-7280","weekday":"00:00 ~ 24:00","saturday":"00:00 ~ 24:00","sunday":"00:00 ~ 24:00","sample":"○"},
{"no":"439","sido":"전북","name":"호성전주병원","address":"전라북도 전주시 덕진구 동부대로 895","lat":"35.8654315","lng":"127.1478445","callnum":"063-240-8894","weekday":"9:00 ~ 17:00","saturday":"미운영","sunday":"미운영","sample":"○"},
{"no":"440","sido":"전북","name":"예수병원","address":"전라북도 전주시 완산구 서원로 365","lat":"35.8143037","lng":"127.1331759","callnum":"063-230-8282","weekday":"00:00 ~ 24:00","saturday":"00:00 ~ 24:00","sunday":"미운영","sample":"○"},
{"no":"441","sido":"전북","name":"덕진선별진료소","address":"전라북도 전주시 덕진구 벚꽃로 55","lat":"35.8293831","lng":"127.1345061","callnum":"063-281-6341","weekday":"9:00 ~ 21:00","saturday":"9:00 ~ 18:00","sunday":"09:00 ~ 18:00","sample":"○"},
{"no":"442","sido":"전북","name":"화산선별진료소","address":"전라북도 전주시 완산구 백제대로 310","lat":"35.8213866","lng":"127.1242788","callnum":"063-281-6341","weekday":"9:00 ~ 18:00","saturday":"미운영","sunday":"미운영","sample":"○"},
{"no":"443","sido":"전북","name":"정읍시보건소","address":"전라북도 정읍시 수성동 958-2","lat":"35.5780951","lng":"126.8547537","callnum":"063-539-6112","weekday":"09:00 ~ 18:00","saturday":"09:00 ~ 18:00","sunday":"09:00 ~ 18:00","sample":"○"},
{"no":"444","sido":"전북","name":"정읍아산병원","address":"전라북도 정읍시 충정로 606-22","lat":"35.588731","lng":"126.8239163","callnum":"063-530-6230","weekday":"00:00 ~ 24:00","saturday":"00:00 ~ 24:00","sunday":"00:00 ~ 24:00","sample":"○"},
{"no":"445","sido":"전북","name":"진안군보건소","address":"전라북도 진안군 진안읍 군상리 90-15 진안보건소 진안군보건소","lat":"35.7971903","lng":"127.4347945","callnum":"063-430-8523","weekday":"09:00 ~ 18:00","saturday":"미운영","sunday":"미운영","sample":"○"},
{"no":"446","sido":"전북","name":"진안군의료원","address":"전라북도 진안군 진안읍 진무로 1145","lat":"35.7951763","lng":"127.4320209","callnum":"063-430-7119","weekday":"00:00 ~ 24:00","saturday":"00:00 ~ 24:00","sunday":"00:00 ~ 24:00","sample":"○"},
{"no":"447","sido":"전북","name":"무주군보건의료원","address":"전라북도 무주군 무주읍 당산리 701","lat":"36.0058705","lng":"127.6716895","callnum":"063-320-8360","weekday":"24:00 ~ 24:00","saturday":"24:00 ~ 24:00","sunday":"24:00 ~ 24:00","sample":"○"},
{"no":"448","sido":"전북","name":"순창군보건의료원","address":"전라북도 순창군 순창읍 교성로 135","lat":"35.3668734","lng":"127.1438949","callnum":"063-650-5352","weekday":"08:30 ~ 17:30","saturday":"08:30 ~ 17:30","sunday":"08:30 ~ 17:30","sample":"○"},
{"no":"449","sido":"전북","name":"임실군보건의료원","address":"전라북도 임실군 임실읍 이도리 270-8 임실군 보건의료원 (270-8번지)","lat":"35.6127041","lng":"127.2870715","callnum":"063-640-3171,3119","weekday":"09:00 ~ 20:00","saturday":"09:00 ~ 18:00","sunday":"09:00 ~ 18:00","sample":"○"},
{"no":"450","sido":"전북","name":"장수군보건의료원","address":"전라북도 장수군 장수읍 장수리 425 장수보건의료원","lat":"35.6546776","lng":"127.5195014","callnum":"063-350-2662","weekday":"00:00 ~ 24:00","saturday":"00:00 ~ 24:00","sunday":"00:00 ~ 24:00","sample":"○"},
{"no":"451","sido":"전남","name":"강진군보건소","address":"전라남도 강진군 강진읍 목리길 11","lat":"34.63826487","lng":"126.7754223","callnum":"061-430-3553","weekday":"09:00 ~ 18:00","saturday":"09:00 ~ 18:00","sunday":"09:00 ~ 18:00","sample":"○"},
{"no":"452","sido":"전남","name":"강진의료원","address":"전라남도 강진군 강진읍 탐진로 5","lat":"34.6366639","lng":"126.7583262","callnum":"061-433-2167","weekday":"00:00 ~ 24:00","saturday":"00:00 ~ 24:00","sunday":"00:00 ~ 24:00","sample":"○"},
{"no":"453","sido":"전남","name":"고흥군보건소","address":"전라남도 고흥군 고흥읍 등암리 1258-21번지","lat":"34.5922741","lng":"127.2687679","callnum":"061-830-6688","weekday":"09:00 ~ 18:00","saturday":"09:00 ~ 18:00","sunday":"09:00 ~ 18:00","sample":"○"},
{"no":"454","sido":"전남","name":"고흥종합병원","address":"전라남도 고흥군 고흥읍 고흥로 1935","lat":"34.6210632","lng":"127.2939786","callnum":"061-830-3119","weekday":"00:00 ~ 24:00","saturday":"00:00 ~ 24:00","sunday":"00:00 ~ 24:00","sample":"○"},
{"no":"455","sido":"전남","name":"녹동현대병원","address":"전라남도 고흥군 도양읍 차경구렁목길 215","lat":"34.5462469","lng":"127.1457073","callnum":"061-840-1119","weekday":"00:00 ~ 24:00","saturday":"00:00 ~ 24:00","sunday":"00:00 ~ 24:00","sample":"○"},
{"no":"456","sido":"전남","name":"광양시보건소","address":"전라남도 광양시 광양읍 인덕로 1100, 광양시보건소","lat":"34.9807718","lng":"127.5836447","callnum":"061-797-4011","weekday":"09:00 ~ 18:00","saturday":"09:00 ~ 18:00","sunday":"09:00 ~ 18:00","sample":"○"},
{"no":"457","sido":"전남","name":"광양사랑병원","address":"전라남도 광양시 공영로 71","lat":"34.9361693","lng":"127.696917","callnum":"061-797-7119","weekday":"09:00 ~ 11:30","saturday":"09:00 ~ 11:30","sunday":"미운영","sample":"○"},
{"no":"458","sido":"전남","name":"나주시보건소","address":"전라남도 나주시 이창동 740-1","lat":"34.9952935","lng":"126.7083301","callnum":"061-339-4844","weekday":"9:00 ~ 18:00","saturday":"9:00 ~ 18:00","sunday":"9:00 ~ 18:00","sample":"○"},
{"no":"459","sido":"전남","name":"나주종합병원","address":"전라남도 나주시 영산로 5419","lat":"35.0365443","lng":"126.721435","callnum":"061-330-6112","weekday":"00:00 ~ 24:00","saturday":"00:00 ~ 24:00","sunday":"00:00 ~ 24:00","sample":"○"},
{"no":"460","sido":"전남","name":"담양군보건소","address":"전라남도 담양군 담양읍 만성리 135","lat":"35.3249518","lng":"126.981329","callnum":"061-380-3967","weekday":"09:00 ~ 18:00","saturday":"09:00 ~ 18:00","sunday":"09:00 ~ 18:00","sample":"○"},
{"no":"461","sido":"전남","name":"담양 사랑병원","address":"전라남도 담양군 담양읍 천변7길 19","lat":"35.3153179","lng":"126.9826045","callnum":"061-380-9119","weekday":"08:30 ~ 17:00","saturday":"08:30 ~ 12:00","sunday":"00:00 ~ 00:00","sample":"○"},
{"no":"462","sido":"전남","name":"목포시보건소","address":"전라남도 목포시 산정동 1676","lat":"34.8040869","lng":"126.3736324","callnum":"061-277-4000","weekday":"09:00 ~ 18:00","saturday":"09:00 ~ 18:00","sunday":"09:00 ~ 18:00","sample":"○"},
{"no":"463","sido":"전남","name":"목포한국병원","address":"전라남도 목포시 영산로 483","lat":"34.8089329","lng":"126.4164313","callnum":"061-270-5900","weekday":"00:00 ~ 24:00","saturday":"00:00 ~ 24:00","sunday":"00:00 ~ 24:00","sample":"○"},
{"no":"464","sido":"전남","name":"목포기독병원","address":"전라남도 목포시 백년대로 303","lat":"34.8044799","lng":"126.4205707","callnum":"061-260-7211","weekday":"00:00 ~ 24:00","saturday":"00:00 ~ 24:00","sunday":"00:00 ~ 24:00","sample":"○"},
{"no":"465","sido":"전남","name":"목포중앙병원","address":"전라남도 목포시 영산로 627","lat":"34.8215367","lng":"126.4214912","callnum":"061-280-3167","weekday":"00:00 ~ 24:00","saturday":"00:00 ~ 24:00","sunday":"00:00 ~ 24:00","sample":"○"},
{"no":"466","sido":"전남","name":"목포시의료원","address":"전라남도 목포시 이로로 18","lat":"34.8042536","lng":"126.4052979","callnum":"061-260-6342","weekday":"00:00 ~ 24:00","saturday":"00:00 ~ 24:00","sunday":"00:00 ~ 24:00","sample":"○"},
{"no":"467","sido":"전남","name":"세안종합병원","address":"전라남도 목포시 고하대로 795-2","lat":"34.8169114","lng":"126.3802441","callnum":"061-260-6666","weekday":"00:00 ~ 24:00","saturday":"00:00 ~ 24:00","sunday":"00:00 ~ 24:00","sample":"○"},
{"no":"468","sido":"전남","name":"전남중앙병원","address":"전라남도 목포시 고하대로 724","lat":"34.8103796","lng":"126.3757491","callnum":"061-260-3555","weekday":"00:00 ~ 24:00","saturday":"00:00 ~ 24:00","sunday":"00:00 ~ 24:00","sample":"○"},
{"no":"469","sido":"전남","name":"무안군보건소","address":"전라남도 무안군 무안읍 성동리 712-1","lat":"34.9906048","lng":"126.4815801","callnum":"061-450-5023","weekday":"09:00 ~ 18:00","saturday":"09:00 ~ 18:00","sunday":"09:00 ~ 18:00","sample":"○"},
{"no":"470","sido":"전남","name":"대송의료재단 무안병원","address":"전라남도 무안군 무안읍 몽탄로 65","lat":"34.9918096","lng":"126.4892797","callnum":"061-450-3119","weekday":"00:00 ~ 24:00","saturday":"00:00 ~ 24:00","sunday":"00:00 ~ 24:00","sample":"○"},
{"no":"471","sido":"전남","name":"보성군보건소","address":"전라남도 보성군 보성읍 보성리 827","lat":"34.7701134","lng":"127.0792482","callnum":"061-850-8816","weekday":"09:00 ~ 18:00","saturday":"09:00 ~ 18:00","sunday":"09:00 ~ 18:00","sample":"○"},
{"no":"472","sido":"전남","name":"보성아산병원","address":"전라남도 보성군 미력면 가평길 36-17","lat":"34.7764899","lng":"127.1050701","callnum":"061-850-3606","weekday":"00:00 ~ 24:00","saturday":"00:00 ~ 24:00","sunday":"00:00 ~ 24:00","sample":"○"},
{"no":"473","sido":"전남","name":"벌교삼호병원","address":"전라남도 보성군 벌교읍 남하로 12","lat":"34.8337766","lng":"127.3456189","callnum":"061-859-5051","weekday":"00:00 ~ 24:00","saturday":"00:00 ~ 24:00","sunday":"00:00 ~ 24:00","sample":"○"},
{"no":"474","sido":"전남","name":"순천시보건소","address":"전라남도 순천시 석현동 36-1","lat":"34.9665488","lng":"127.4853793","callnum":"061-749-6680","weekday":"09:00 ~ 18:00","saturday":"09:00 ~ 18:00","sunday":"09:00 ~ 18:00","sample":"○"},
{"no":"475","sido":"전남","name":"순천 성가롤로병원","address":"전라남도 순천시 순광로 221","lat":"34.9643545","lng":"127.543036","callnum":"061-720-2061","weekday":"08:30 ~ 11:30","saturday":"08:30 ~ 11:30","sunday":"08:30 ~ 11:30","sample":"○"},
{"no":"476","sido":"전남","name":"순천의료원","address":"전라남도 순천시 서문성터길 2","lat":"34.9584373","lng":"127.4836343","callnum":"061-759-9139","weekday":"00:00 ~ 24:00","saturday":"00:00 ~ 24:00","sunday":"00:00 ~ 24:00","sample":"○"},
{"no":"477","sido":"전남","name":"순천병원","address":"전라남도 순천시 조례1길 24(조례동)","lat":"34.9608228","lng":"127.5247911","callnum":"061-720-7126","weekday":"09:00 ~ 17:30","saturday":"00:00 ~ 24:00","sunday":"00:00 ~ 24:00","sample":"○"},
{"no":"478","sido":"전남","name":"신안군보건소","address":"전라남도 신안군 압해읍 신장리 462-10","lat":"34.8336309","lng":"126.3520081","callnum":"061-240-8084","weekday":"09:00 ~ 18:00","saturday":"09:00 ~ 18:00","sunday":"09:00 ~ 18:00","sample":"○"},
{"no":"479","sido":"전남","name":"여수시보건소","address":"전라남도 여수시 학동 213 여수시 보건소","lat":"34.7593837","lng":"127.6608183","callnum":"061-659-4248","weekday":"09:00 ~ 18:00","saturday":"09:00 ~ 18:00","sunday":"09:00 ~ 18:00","sample":"○"},
{"no":"480","sido":"전남","name":"여천전남병원","address":"전라남도  여수시 무선로 95","lat":"34.7690473","lng":"127.6542568","callnum":"061-690-6196,6661","weekday":"09:00 ~ 17:00","saturday":"09:00 ~ 13:00","sunday":"미운영","sample":"○"},
{"no":"481","sido":"전남","name":"여수전남병원","address":"전라남도 여수시 좌수영로 49(광무동,전라남도병원)","lat":"34.744984","lng":"127.7279459","callnum":"061-640-7127,7130","weekday":"09:00 ~ 17:00","saturday":"09:00 ~ 12:00","sunday":"미운영","sample":"○"},
{"no":"482","sido":"전남","name":"여수한국병원","address":"전라남도 여수시 여천체육공원길 10","lat":"34.7610442","lng":"127.6746735","callnum":"061-689-9119,9262","weekday":"09:00 ~ 17:30","saturday":"09:00 ~ 12:00","sunday":"미운영","sample":"○"},
{"no":"483","sido":"전남","name":"여수제일병원","address":"전라남도 여수시 쌍봉로 70","lat":"34.7659812","lng":"127.6635333","callnum":"061-689-8101,8846","weekday":"09:00 ~ 18:00","saturday":"09:00 ~ 13:00","sunday":"미운영","sample":"○"},
{"no":"484","sido":"전남","name":"영광군보건소","address":"전라남도 영광군 영광읍 남천리 326-5","lat":"35.2743304","lng":"126.5042636","callnum":"061-350-5552","weekday":"09:00 ~ 18:00","saturday":"09:00 ~ 18:00","sunday":"09:00 ~ 18:00","sample":"○"},
{"no":"485","sido":"전남","name":"영광종합병원","address":"전라남도 영광군 영광읍 와룡로 3","lat":"35.2844155","lng":"126.4991206","callnum":"061-350-8129","weekday":"00:00 ~ 00:00","saturday":"00:00 ~ 00:00","sunday":"00:00 ~ 00:00","sample":"○"},
{"no":"486","sido":"전남","name":"영광기독병원","address":"전라남도 영광군 영광읍 신남로 265","lat":"35.2749531","lng":"126.5109017","callnum":"061-350-3119","weekday":"00:00 ~ 00:00","saturday":"00:00 ~ 00:00","sunday":"00:00 ~ 00:00","sample":"○"},
{"no":"487","sido":"전남","name":"영암군보건소","address":"전라남도 영암군 영암읍 춘양리 525 영암군보건소","lat":"34.7950202","lng":"126.7040528","callnum":"061-470-6580","weekday":"09:00 ~ 18:00","saturday":"09:00 ~ 18:00","sunday":"09:00 ~ 18:00","sample":"○"},
{"no":"488","sido":"전남","name":"장흥군보건소","address":"전라남도 장흥군 장흥읍 흥성로 49","lat":"34.6765806","lng":"126.9081707","callnum":"061-860-6481","weekday":"09:00 ~ 18:00","saturday":"09:00 ~ 18:00","sunday":"09:00 ~ 18:00","sample":"○"},
{"no":"489","sido":"전남","name":"장흥종합병원","address":"전라남도 장흥군 장흥읍 흥성로 92","lat":"34.6784129","lng":"126.9124678","callnum":"061-862-8300","weekday":"00:00 ~ 24:00","saturday":"00:00 ~ 24:00","sunday":"00:00 ~ 24:00","sample":"○"},
{"no":"490","sido":"전남","name":"진도군보건소","address":"전라남도 진도군 진도읍 남동리 776-26번지","lat":"34.4801651","lng":"126.2629948","callnum":"061-540-6054","weekday":"09:00 ~ 18:00","saturday":"09:00 ~ 18:00","sunday":"09:00 ~ 18:00","sample":"○"},
{"no":"491","sido":"전남","name":"진도한국병원","address":"전라남도 진도군 남문길 48","lat":"34.4825252","lng":"126.2641542","callnum":"061-542-7575","weekday":"00:00 ~ 24:00","saturday":"00:00 ~ 24:00","sunday":"00:00 ~ 24:00","sample":"○"},
{"no":"492","sido":"전남","name":"함평군보건소","address":"전라남도 함평군 함평읍 기각리 253","lat":"35.0621583","lng":"126.5242808","callnum":"061-320-2424","weekday":"09:00 ~ 18:00","saturday":"09:00 ~ 18:00","sunday":"09:00 ~ 18:00","sample":"○"},
{"no":"493","sido":"전남","name":"함평성심병원","address":"전라남도 함평군 함평읍 영수길 132","lat":"35.0619072","lng":"126.5199443","callnum":"061-324-0001","weekday":"18:00 ~ 09:00","saturday":"00:00 ~ 24:00","sunday":"18:00 ~ 24:00","sample":"○"},
{"no":"494","sido":"전남","name":"해남군보건소","address":"전라남도 해남군 해남읍 해남로 46","lat":"34.5702298","lng":"126.6121101","callnum":"061-531-3745","weekday":"09:00 ~ 18:00","saturday":"09:00 ~ 18:00","sunday":"09:00 ~ 18:00","sample":"○"},
{"no":"495","sido":"전남","name":"해남종합병원","address":"전라남도 해남군 해남읍 해남로 45","lat":"34.5717054","lng":"126.6126632","callnum":"061-530-0119","weekday":"00:00 ~ 24:00","saturday":"00:00 ~ 24:00","sunday":"00:00 ~ 24:00","sample":"○"},
{"no":"496","sido":"전남","name":"해남우리종합병원","address":"전라남도 해남군 옥천면 해남로 597","lat":"34.5842724","lng":"126.6464711","callnum":"061-530-7119","weekday":"00:00 ~ 24:00","saturday":"00:00 ~ 24:00","sunday":"00:00 ~ 24:00","sample":"○"},
{"no":"497","sido":"전남","name":"화순군보건소","address":"전라남도 화순군 화순읍 삼천리 719번지","lat":"35.0574645","lng":"126.9822834","callnum":"061-379-5341","weekday":"09:00 ~ 18:00","saturday":"09:00 ~ 18:00","sunday":"09:00 ~ 18:00","sample":"○"},
{"no":"498","sido":"전남","name":"전남화순대학교병원","address":"전라남도 화순군 화순읍 서양로 322","lat":"35.0595687","lng":"127.0022861","callnum":"061-379-8884","weekday":"00:00 ~ 24:00","saturday":"00:00 ~ 24:00","sunday":"00:00 ~ 24:00","sample":"○"},
{"no":"499","sido":"전남","name":"화순성심병원","address":"전라남도 화순군 화순읍 만연로 31","lat":"35.0584384","lng":"126.9898793","callnum":"061-370-9114","weekday":"09:00 ~ 18:00","saturday":"미운영","sunday":"미운영","sample":"○"},
{"no":"500","sido":"전남","name":"곡성군보건의료원","address":"전라남도 곡성군 곡성읍 곡성로 854","lat":"35.2789489","lng":"127.2972086","callnum":"061-360-8945","weekday":"09:00 ~ 18:00","saturday":"09:00 ~ 18:00","sunday":"09:00 ~ 18:00","sample":"○"},
{"no":"501","sido":"전남","name":"곡성사랑병원","address":"전라남도 곡성군 곡성읍 곡성로 761","lat":"35.2762626","lng":"127.2879435","callnum":"061-360-6008","weekday":"00:00 ~ 24:00","saturday":"미운영","sunday":"미운영","sample":"○"},
{"no":"502","sido":"전남","name":"구례군보건의료원","address":"전라남도 구례군 구례읍 동편제길 30","lat":"35.2159159","lng":"127.4611173","callnum":"061-780-2673","weekday":"09:00 ~ 18:00","saturday":"09:00 ~ 18:00","sunday":"09:00 ~ 18:00","sample":"○"},
{"no":"503","sido":"전남","name":"구례병원","address":"전라남도 구례군 구례읍 동편제길 4","lat":"35.2159195","lng":"127.4639512","callnum":"061-780-3231","weekday":"09:00 ~ 09:00","saturday":"09:00 ~ 09:00","sunday":"09:00 ~ 09:00","sample":"○"},
{"no":"504","sido":"전남","name":"완도군보건의료원","address":"전라남도 완도군 완도읍 죽청리 483-8 완도보건의료원 본관","lat":"34.3361817","lng":"126.7313106","callnum":"061-550-6767","weekday":"9:0 ~ 18:0","saturday":"9:0 ~ 18:0","sunday":"9:0 ~ 18:0","sample":"○"},
{"no":"505","sido":"전남","name":"대성병원","address":"전라남도 완도군 완도읍 청해진동로 63","lat":"34.31726359","lng":"126.7357657","callnum":"061-553-4567","weekday":"0:0 ~ 24:0","saturday":"0:0 ~ 24:0","sunday":"0:0 ~ 24:0","sample":"○"},
{"no":"506","sido":"전남","name":"장성군보건소","address":"전라남도 장성군 장성읍 영천리 1475-4","lat":"35.3045182","lng":"126.78249","callnum":"061-390-8368","weekday":"09:00 ~ 18:00","saturday":"09:00 ~ 18:00","sunday":"09:00 ~ 18:00","sample":"○"},
{"no":"507","sido":"전남","name":"장성병원","address":"전라남도 장성군 장성읍 역전로 171","lat":"35.3058811","lng":"126.7835692","callnum":"061-390-9000","weekday":"00:00 ~ 24:00","saturday":"00:00 ~ 24:00","sunday":"00:00 ~ 24:00","sample":"○"},
{"no":"508","sido":"경북","name":"경산시보건소","address":"경상북도 경산시 중방동 708-5 (경산시보건소)","lat":"35.8248486","lng":"128.7430542","callnum":"053-810-6363","weekday":"09:00 ~ 18:00","saturday":"09:00 ~ 18:00","sunday":"09:00 ~ 18:00","sample":"○"},
{"no":"509","sido":"경북","name":"경산중앙병원","address":"경상북도 경산시 경안로 11","lat":"35.8091745","lng":"128.740164","callnum":"053-715-0119","weekday":"09:00 ~ 18:00","saturday":"09:00 ~ 12:30","sunday":"미운영","sample":"○"},
{"no":"510","sido":"경북","name":"세명병원","address":"경상북도 경산시 경안로 208","lat":"35.8262463","lng":"128.7370908","callnum":"053-819-8500","weekday":"09:00 ~ 17:30","saturday":"09:00 ~ 13:00","sunday":"미운영","sample":"○"},
{"no":"511","sido":"경북","name":"경주시보건소","address":"경상북도 경주시 동천동 987","lat":"35.8594277","lng":"129.2245779","callnum":"054-760-2080","weekday":"10:00 ~ 16:00","saturday":"10:00 ~ 16:00","sunday":"10:00 ~ 16:00","sample":"○"},
{"no":"512","sido":"경북","name":"동국대 경주병원","address":"경상북도 경주시 동대로 87","lat":"35.8583079","lng":"129.1952659","callnum":"054-748-9300","weekday":"09:00 ~ 16:30","saturday":"미운영","sunday":"미운영","sample":"○"},
{"no":"513","sido":"경북","name":"고령군보건소","address":"경상북도 고령군 대가야읍 지산리 232-8 고령군보건소","lat":"35.7252361","lng":"128.2648136","callnum":"054-954-1300","weekday":"09:00 ~ 18:00","saturday":"09:00 ~ 18:00","sunday":"09:00 ~ 18:00","sample":"○"},
{"no":"514","sido":"경북","name":"고령영생병원","address":"경상북도 고령군 대가야읍 중앙로33","lat":"35.7299791","lng":"128.2720699","callnum":"054-955-2661","weekday":"09:00 ~ 18:00","saturday":"09:00 ~ 12:00","sunday":"미운영","sample":"○"},
{"no":"515","sido":"경북","name":"구미보건소","address":"경상북도 구미시 선산대로 111","lat":"36.1398978","lng":"128.3459363","callnum":"054-480-7837","weekday":"09:00 ~ 16:00","saturday":"09:00 ~ 16:00","sunday":"09:00 ~ 16:00","sample":"○"},
{"no":"516","sido":"경북","name":"순천향대학교구미병원","address":"경상북도 구미시 1공단로 179","lat":"36.1031486","lng":"128.3827259","callnum":"054-468-9114","weekday":"09:30 ~ 17:00","saturday":"09:30 ~ 12:00","sunday":"미운영","sample":"○"},
{"no":"517","sido":"경북","name":"구미차병원","address":"경상북도 구미시 신시로10길 12","lat":"36.114578","lng":"128.340549","callnum":"054-450-9700","weekday":"10:00 ~ 15:00","saturday":"미운영","sunday":"미운영","sample":"○"},
{"no":"518","sido":"경북","name":"구미강동병원","address":"경상북도 구미시 인동20길 46","lat":"36.0963721","lng":"128.4225946","callnum":"1599-9669","weekday":"09:00 ~ 16:30","saturday":"09:00 ~ 12:00","sunday":"미운영","sample":"○"},
{"no":"519","sido":"경북","name":"군위군보건소","address":"경상북도 군위군 군위읍 군청로 70 군위군보건소","lat":"36.2296822","lng":"128.5699489","callnum":"054-380-7447","weekday":"09:30 ~ 17:30","saturday":"09:30 ~ 17:30","sunday":"09:30 ~ 17:30","sample":"○"},
{"no":"520","sido":"경북","name":"김천시보건소","address":"경상북도 김천시 신음동 1284","lat":"36.1396859","lng":"128.1132493","callnum":"054-433-4000","weekday":"09:00 ~ 17:00","saturday":"09:00 ~ 17:00","sunday":"09:00 ~ 17:00","sample":"○"},
{"no":"521","sido":"경북","name":"김천제일병원","address":"경상북도 김천시 신음1길 12","lat":"36.1354534","lng":"128.1188209","callnum":"054-420-9300","weekday":"09:00 ~ 18:00","saturday":"09:00 ~ 13:00","sunday":"미운영","sample":"○"},
{"no":"522","sido":"경북","name":"김천의료원","address":"경상북도 김천시 모암길 24","lat":"36.1227194","lng":"128.1264115","callnum":"054-429-8114","weekday":"10:00 ~ 16:00","saturday":"10:00 ~ 12:30","sunday":"미운영","sample":"○"},
{"no":"523","sido":"경북","name":"문경시보건소","address":"경상북도 문경시 점촌동(점촌1동) 232 문경시보건소","lat":"36.5962606","lng":"128.1975141","callnum":"054-550-8168","weekday":"09:00 ~ 18:00","saturday":"09:00 ~ 18:00","sunday":"09:00 ~ 18:00","sample":"○"},
{"no":"524","sido":"경북","name":"문경제일병원","address":"경상북도 문경시 당교3길 25","lat":"36.5842614","lng":"128.188823","callnum":"054-550-7700","weekday":"00:00 ~ 24:00","saturday":"00:00 ~ 24:00","sunday":"00:00 ~ 24:00","sample":"○"},
{"no":"525","sido":"경북","name":"문경중앙병원","address":"경상북도 문경시 중앙로 117-18","lat":"36.5960147","lng":"128.1990894","callnum":" 054-555-2011  ","weekday":"00:00 ~ 24:00","saturday":"00:00 ~ 24:00","sunday":"00:00 ~ 24:00","sample":"○"},
{"no":"526","sido":"경북","name":"봉화군보건소","address":"경상북도 봉화군 봉화읍 내성리 285 봉화군보건소","lat":"36.8905202","lng":"128.7421575","callnum":"054-673-4000","weekday":"09:00 ~ 18:00","saturday":"09:00 ~ 18:00","sunday":"09:00 ~ 18:00","sample":"○"},
{"no":"527","sido":"경북","name":"봉화해성병원","address":"경상북도 봉화군 보밑길3 봉화해성병원","lat":"36.8917371","lng":"128.7333957","callnum":"054-674-0011","weekday":"12:00 ~ 12:00","saturday":"12:00 ~ 12:00","sunday":"12:00 ~ 12:00","sample":"○"},
{"no":"528","sido":"경북","name":"상주시보건소","address":"경상북도 상주시 무양동 33-4","lat":"36.4165514","lng":"128.150102","callnum":"054-535-4000","weekday":"09:00 ~ 18:00","saturday":"09:00 ~ 18:00","sunday":"09:00 ~ 18:00","sample":"○"},
{"no":"529","sido":"경북","name":"상주적십자병원","address":"경상북도 상주시 상서문로 53","lat":"36.4146699","lng":"128.1555287","callnum":"054-534-3501","weekday":"08:30 ~ 17:00","saturday":"09:00 ~ 12:30","sunday":"미운영","sample":"○"},
{"no":"530","sido":"경북","name":"상주성모병원","address":"경상북도 상주시 냉림서성길 7 ","lat":"36.42033777","lng":"128.1597164","callnum":"054-530-7123","weekday":"09:00 ~ 17:00","saturday":"미운영","sunday":"미운영","sample":"○"},
{"no":"531","sido":"경북","name":"구미시선산보건소","address":"경상북도 구미시 선산읍 동부리 544-1","lat":"36.2442368","lng":"128.2999322","callnum":"054-480-4130","weekday":"09:00 ~ 16:00","saturday":"미운영","sunday":"미운영","sample":"○"},
{"no":"532","sido":"경북","name":"성주군보건소","address":"경상북도 성주군 성주읍 성밖숲길 2","lat":"35.9176759","lng":"128.2787832","callnum":"054-930-8122","weekday":"09:00 ~ 18:00","saturday":"10:00 ~ 17:00","sunday":"10:00 ~ 17:00","sample":"○"},
{"no":"533","sido":"경북","name":"안동시보건소","address":"경상북도 안동시 북문동(중구동) 58 안동시보건소","lat":"36.5669816","lng":"128.7299898","callnum":"054-840-5999,5917","weekday":"09:00 ~ 18:00","saturday":"09:00 ~ 18:00","sunday":"09:00 ~ 18:00","sample":"○"},
{"no":"534","sido":"경북","name":"안동병원","address":"경상북도 안동시 앙실로 11 (수상동)","lat":"36.5466703","lng":"128.7011385","callnum":"054-840-0119","weekday":"09:00 ~ 17:00","saturday":"09:00 ~ 12:30","sunday":"미운영","sample":"○"},
{"no":"535","sido":"경북","name":"안동성소병원","address":"경상북도 안동시 서동문로 99","lat":"36.5675843","lng":"128.7227782","callnum":"054-850-8114","weekday":"00:00 ~ 24:00","saturday":"00:00 ~ 24:00","sunday":"00:00 ~ 24:00","sample":"○"},
{"no":"536","sido":"경북","name":"경상북도안동의료원","address":"경상북도 안동시 태사2길 55","lat":"36.5681136","lng":"128.7320227","callnum":"054-850-6100","weekday":"09:00 ~ 16:30","saturday":"09:00 ~ 11:30","sunday":"미운영","sample":"○"},
{"no":"537","sido":"경북","name":"영덕군보건소","address":"경상북도 영덕군 영덕읍 군청길 53","lat":"36.4130175","lng":"129.3735825","callnum":"054-730-6894","weekday":"09:00 ~ 17:00","saturday":"09:00 ~ 17:00","sunday":"09:00 ~ 17:00","sample":"○"},
{"no":"538","sido":"경북","name":"영덕아산병원","address":"경상북도 영덕군 영해면 영덕로 1621","lat":"36.52478486","lng":"129.4024485","callnum":"054-730-0119","weekday":"09:00 ~ 17:00","saturday":"미운영","sunday":"미운영","sample":"○"},
{"no":"539","sido":"경북","name":"영양군보건소","address":"경상북도 영양군 영양읍 동부리 동서대로 82번지","lat":"36.661931","lng":"129.1180561","callnum":"054-680-5196","weekday":"09:00 ~ 18:00","saturday":"10:00 ~ 16:00","sunday":"10:00 ~ 16:00","sample":"○"},
{"no":"540","sido":"경북","name":"영주시보건소","address":"경상북도 영주시 휴천동(휴천2동) 466-6 영주시보건소","lat":"36.8061221","lng":"128.6218997","callnum":"054-631-4000","weekday":"09:00 ~ 18:00","saturday":"09:00 ~ 18:00","sunday":"09:00 ~ 18:00","sample":"○"},
{"no":"541","sido":"경북","name":"영주적십자병원","address":"경상북도 영주시 대학로 327","lat":"36.8252562","lng":"128.6040069","callnum":"054-630-0100","weekday":"09:00 ~ 17:00","saturday":"미운영","sunday":"미운영","sample":"○"},
{"no":"542","sido":"경북","name":"영천시보건소","address":"경상북도 영천시 문내동 152-1","lat":"35.9684259","lng":"128.9328671","callnum":"054-339-7979","weekday":"09:00 ~ 16:00","saturday":"09:00 ~ 16:00","sunday":"09:00 ~ 16:00","sample":"○"},
{"no":"543","sido":"경북","name":"영남대학교 영천병원","address":"경상북도 영천시 오수1길 10","lat":"35.9573464","lng":"128.9133039","callnum":"054-330-7575","weekday":"00:00 ~ 24:00","saturday":"00:00 ~ 24:00","sunday":"00:00 ~ 24:00","sample":"○"},
{"no":"544","sido":"경북","name":"예천군보건소","address":"경상북도 예천군 예천읍 군청길 33, 예천군보건소","lat":"36.6575938","lng":"128.4529785","callnum":"054-650-8059","weekday":"09:00 ~ 18:00","saturday":"09:00 ~ 18:00","sunday":"09:00 ~ 18:00","sample":"○"},
{"no":"545","sido":"경북","name":"예천권병원","address":"경상북도 예천군 예천읍 시장로 136, 예천권병원","lat":"36.6573815","lng":"128.4589838","callnum":"054-654-6611","weekday":"00:00 ~ 24:00","saturday":"00:00 ~ 24:00","sunday":"00:00 ~ 24:00","sample":"○"},
{"no":"546","sido":"경북","name":"의성군보건소","address":"경상북도 의성군 의성읍 도서리 104-1","lat":"36.3458175","lng":"128.6975066","callnum":"054-830-6660","weekday":"09:00 ~ 17:00","saturday":"09:00 ~ 17:00","sunday":"09:00 ~ 17:00","sample":"○"},
{"no":"547","sido":"경북","name":"공생병원","address":"경상북도 의성군 의성읍 문소3길 96","lat":"36.3544588","lng":"128.6946868","callnum":"054-834-3881","weekday":"09:00 ~ 18:00","saturday":"미운영","sunday":"미운영","sample":"○"},
{"no":"548","sido":"경북","name":"청도군보건소","address":"경상북도 청도군 화양읍 범곡리 96","lat":"35.6486113","lng":"128.7372887","callnum":"054-373-9453","weekday":"09:00 ~ 18:00","saturday":"09:00 ~ 18:00","sunday":"09:00 ~ 18:00","sample":"○"},
{"no":"549","sido":"경북","name":"칠곡군보건소","address":"경상북도 칠곡군 왜관읍 석전2리 262-1","lat":"35.9843446","lng":"128.4214641","callnum":"054-979-8223","weekday":"09:00 ~ 18:00","saturday":"09:00 ~ 18:00","sunday":"09:00 ~ 18:00","sample":"○"},
{"no":"550","sido":"경북","name":"포항시남구보건소","address":"경상북도 포항시 남구 인덕동(제철동) 161-1 남구보건소","lat":"35.9924351","lng":"129.396218","callnum":"054-270-4004","weekday":"09:00 ~ 18:00","saturday":"09:00 ~ 18:00","sunday":"09:00 ~ 18:00","sample":"○"},
{"no":"551","sido":"경북","name":"세명기독병원","address":"경상북도 포항시 남구 대도동 94-8","lat":"36.0177171","lng":"129.3623076","callnum":"054-275-0005","weekday":"09:00 ~ 17:20","saturday":"09:00 ~ 12:20","sunday":"미운영","sample":"○"},
{"no":"552","sido":"경북","name":"포항성모병원","address":"경상북도 포항시 남구 대잠동길 17","lat":"36.015035","lng":"129.3395872","callnum":"054-260-8019","weekday":"09:00 ~ 16:30","saturday":"09:00 ~ 11:30","sunday":"미운영","sample":"○"},
{"no":"553","sido":"경북","name":"포항시북구보건소","address":"경상북도 포항시 북구 장성동 1363","lat":"36.0706277","lng":"129.3804591","callnum":"054-270-4114","weekday":"09:00 ~ 18:00","saturday":"09:00 ~ 18:00","sunday":"09:00 ~ 18:00","sample":"○"},
{"no":"554","sido":"경북","name":"포항의료원","address":"경상북도 포항시 북구 용흥로 36","lat":"36.0352506","lng":"129.3539436","callnum":"054-247-0551","weekday":"10:00 ~ 16:00","saturday":"11:00 ~ 12:00","sunday":"미운영","sample":"○"},
{"no":"555","sido":"경북","name":"울릉군보건의료원","address":"경상북도 울릉군 울릉읍    울릉순환로 396-18","lat":"37.4858999","lng":"130.8989205","callnum":"054-790-6871","weekday":"09:00 ~ 17:00","saturday":"미운영","sunday":"미운영","sample":"○"},
{"no":"556","sido":"경북","name":"울진군보건소","address":"경상북도 울진군 울진읍 읍내8길 61-8","lat":"36.9960198","lng":"129.4045785","callnum":"054-783-1250","weekday":"09:00 ~ 17:00","saturday":"10:00 ~ 17:00","sunday":"10:00 ~ 17:00","sample":"○"},
{"no":"557","sido":"경북","name":"청송군보건의료원","address":"경상북도 청송군 청송읍 금곡리 1056-54 청송보건의료원","lat":"36.4311088","lng":"129.0519714","callnum":"054-870-7100","weekday":"00:00 ~ 24:00","saturday":"00:00 ~ 24:00","sunday":"00:00 ~ 24:00","sample":"○"},
{"no":"558","sido":"경북","name":"경북북부제2교도소 부속의원","address":"경상북도 청송군 진보면 양정길 110","lat":"36.5463033","lng":"129.056624","callnum":"054-870-2575","weekday":"00:00 ~ 24:00","saturday":"00:00 ~ 24:00","sunday":"00:00 ~ 24:00","sample":"○"},
{"no":"559","sido":"경남","name":"거제시보건소","address":"경상남도 거제시 수양로 506","lat":"34.8918888","lng":"128.6366701","callnum":"055-639-6200","weekday":"09:30 ~ 17:30","saturday":"09:30 ~ 17:30","sunday":"09:30 ~ 17:30","sample":"○"},
{"no":"560","sido":"경남","name":"거붕백병원","address":"경상남도 거제시 계룡로5길 14","lat":"34.8731916","lng":"128.6264299","callnum":"055-733-0000","weekday":"08:30 ~ 17:30","saturday":"08:30 ~ 12:30","sunday":"미운영","sample":"○"},
{"no":"561","sido":"경남","name":"대우병원","address":"경상남도 거제시 두모길16","lat":"34.8718512","lng":"128.7218538","callnum":"055-680-8119","weekday":"08:30 ~ 17:30","saturday":"08:30 ~ 12:30","sunday":"미운영","sample":"○"},
{"no":"562","sido":"경남","name":"맑은샘병원","address":"경상남도 거제시 연초면 거제대로 4477","lat":"34.8977386","lng":"128.6436302","callnum":"055-736-1004","weekday":"08:30 ~ 17:00","saturday":"08:30 ~ 12:00","sunday":"미운영","sample":"○"},
{"no":"563","sido":"경남","name":"거창군보건소","address":"경상남도 거창군 거창읍 거함대로 3079 거창군보건소","lat":"35.6809398","lng":"127.8987273","callnum":"055-940-8335","weekday":"09:00 ~ 18:00","saturday":"09:00 ~ 18:00","sunday":"09:00 ~ 18:00","sample":"○"},
{"no":"564","sido":"경남","name":"거창적십자병원","address":"경상남도 거창군 거창읍 중앙로91 거창적십자병원","lat":"35.6868427","lng":"127.9087518","callnum":"055-944-3251","weekday":"00:00 ~ 24:00","saturday":"00:00 ~ 24:00","sunday":"00:00 ~ 24:00","sample":"○"},
{"no":"565","sido":"경남","name":"고성군보건소","address":"경상남도 고성군 고성읍 대독리 4 고성군보건소","lat":"34.9694021","lng":"128.3153731","callnum":"055-670-4016","weekday":"09:00 ~ 18:00","saturday":"09:00 ~ 18:00","sunday":"09:00 ~ 18:00","sample":"○"},
{"no":"566","sido":"경남","name":"김해시보건소","address":"경상남도 김해시 외동(내외동) 1261-3 김해시 보건소","lat":"35.2322712","lng":"128.8710479","callnum":"055-330-4481","weekday":"09:00 ~ 18:00","saturday":"09:00 ~ 18:00","sunday":"09:00 ~ 18:00","sample":"○"},
{"no":"567","sido":"경남","name":"김해중앙병원","address":"경상남도 김해시 분성로 94-8 (외동)","lat":"35.230677","lng":"128.856969","callnum":"055-330-6000","weekday":"08:30 ~ 16:00","saturday":"08:30 ~ 12:30","sunday":"미운영","sample":"○"},
{"no":"568","sido":"경남","name":"갑을장유병원","address":"경상남도 김해시 장유로 167-13 (부곡동)","lat":"35.20863","lng":"128.8056012","callnum":"055-310-6114","weekday":"09:00 ~ 12:30","saturday":"미운영","sunday":"미운영","sample":"○"},
{"no":"569","sido":"경남","name":"조은금강병원","address":"경상남도 김해시 김해대로 1814-37 (삼계동)","lat":"35.262716","lng":"128.8615594","callnum":"055-330-0428","weekday":"09:00 ~ 16:30","saturday":"09:00 ~ 12:00","sunday":"미운영","sample":"○"},
{"no":"570","sido":"경남","name":"남해군보건소","address":"경상남도 남해군 남해읍 북변리 458-1","lat":"34.8447976","lng":"127.8987016","callnum":"055-860-8740","weekday":"09:00 ~ 20:00","saturday":"09:00 ~ 18:00","sunday":"09:00 ~ 18:00","sample":"○"},
{"no":"571","sido":"경남","name":"이도의료재단 남해병원","address":"경상남도 남해군 남해읍 화전로 169","lat":"34.8463264","lng":"127.8943367","callnum":"055-863-2201","weekday":"09:00 ~ 24:00","saturday":"09:00 ~ 24:00","sunday":"09:00 ~ 24:00","sample":"○"},
{"no":"572","sido":"경남","name":"창원시 마산보건소","address":"경상남도 창원시 마산합포구 해운동   61-1","lat":"35.1825079","lng":"128.5629828","callnum":"055-225-5941","weekday":"09:00 ~ 18:00","saturday":"09:00 ~ 18:00","sunday":"09:00 ~ 18:00","sample":"○"},
{"no":"573","sido":"경남","name":"삼성창원병원","address":"경상남도 창원시 마산회원구 팔용로 158","lat":"35.242564","lng":"128.5924049","callnum":"055-233-8899","weekday":"09:00 ~ 17:00","saturday":"09:00 ~ 12:00","sunday":"미운영","sample":"○"},
{"no":"574","sido":"경남","name":"경상남도마산의료원","address":"경상남도 창원시 마산합포구 3.15대로 231","lat":"35.199052","lng":"128.5661828","callnum":"055-249-1116(주간)","weekday":"08:30 ~ 17:30","saturday":"미운영","sunday":"미운영","sample":"○"},
{"no":"575","sido":"경남","name":"SMG연세병원","address":"경상남도 창원시 마산합포구 3.15대로 76","lat":"35.1862912","lng":"128.5616035","callnum":"055-243-0100","weekday":"09:00 ~ 17:30","saturday":"09:00 ~ 12:30","sunday":"미운영","sample":"○"},
{"no":"576","sido":"경남","name":"밀양시보건소","address":"경상남도 밀양시 삼문동 159-1 (삼문중앙로41)","lat":"35.4856111","lng":"128.7561298","callnum":"055-359-7020","weekday":"09:00 ~ 18:00","saturday":"09:00 ~ 18:00","sunday":"09:00 ~ 18:00","sample":"○"},
{"no":"577","sido":"경남","name":"밀양윤병원","address":"경상남도 밀양시 삼문중앙로 32","lat":"35.4844607","lng":"128.7556011","callnum":"055-351-1230","weekday":"00:00 ~ 24:00","saturday":"00:00 ~ 24:00","sunday":"00:00 ~ 24:00","sample":"○"},
{"no":"578","sido":"경남","name":"사천시보건소","address":"경상남도 사천시 용현면 덕곡리 사천시청 501번지","lat":"35.0035002","lng":"128.0644642","callnum":"055-831-3630","weekday":"09:00 ~ 18:00","saturday":"09:00 ~ 18:00","sunday":"09:00 ~ 18:00","sample":"○"},
{"no":"579","sido":"경남","name":"의료법인승연의료재단 삼천포서울병원","address":"경상남도 사천시 남일로 33(동금동)","lat":"34.9331133","lng":"128.0802266","callnum":"055-830-9009","weekday":"00:00 ~ 24:00","saturday":"00:00 ~ 24:00","sunday":"00:00 ~ 24:00","sample":"○"},
{"no":"580","sido":"경남","name":"삼천포제일병원","address":"경상남도 사천시 중앙로136","lat":"34.93754","lng":"128.0795084","callnum":"055-830-3099","weekday":"00:00 ~ 24:00","saturday":"00:00 ~ 24:00","sunday":"00:00 ~ 24:00","sample":"○"},
{"no":"581","sido":"경남","name":"양산시보건소","address":"경상남도 양산시 중부동 707-2(삽량로 169)","lat":"35.335697","lng":"129.0249668","callnum":"055-392-5220","weekday":"09:00 ~ 18:00","saturday":"09:00 ~ 18:00","sunday":"09:00 ~ 18:00","sample":"○"},
{"no":"582","sido":"경남","name":"베데스다병원","address":"경상남도 양산시 신기동 신기로 28","lat":"35.35333693","lng":"129.0437031","callnum":"055-384-9901","weekday":"09:00 ~ 17:00","saturday":"09:00 ~ 12:00","sunday":"미운영","sample":"○"},
{"no":"583","sido":"경남","name":"양산부산대학교병원","address":"경상남도 양산시 물금읍 금오로 20 ","lat":"35.32805878","lng":"129.0063196","callnum":"055-360-3366","weekday":"09:00 ~ 17:00","saturday":"미운영","sunday":"미운영","sample":"○"},
{"no":"584","sido":"경남","name":"웅상중앙병원","address":"경상남도 양산시 서창로 59","lat":"35.40640802","lng":"129.1645652","callnum":"055-912-0119","weekday":"09:00 ~ 17:00","saturday":"미운영","sunday":"미운영","sample":"○"},
{"no":"585","sido":"경남","name":"의령군보건소","address":"경상남도 의령군 의령읍 서동리 534","lat":"35.3176801","lng":"128.2546801","callnum":"055-570-4900","weekday":"09:00 ~ 18:00","saturday":"09:00 ~ 18:00","sunday":"09:00 ~ 18:00","sample":"○"},
{"no":"586","sido":"경남","name":"의령병원","address":"경상남도 의령군 의령읍 의병로14길 10","lat":"35.3186361","lng":"128.2586864","callnum":"055-573-4100","weekday":"00:00 ~ 24:00","saturday":"00:00 ~ 24:00","sunday":"00:00 ~ 24:00","sample":"○"},
{"no":"587","sido":"경남","name":"진주시보건소","address":"경상남도 진주시 월아산로 2026, 1층 (초전동)","lat":"35.2137992","lng":"128.1223176","callnum":"055-749-5714","weekday":"09:00 ~ 18:00","saturday":"09:00 ~ 18:00","sunday":"09:00 ~ 18:00","sample":"○"},
{"no":"588","sido":"경남","name":"제일병원","address":"경상남도 진주시 진주대로 885","lat":"35.1794286","lng":"128.0902614","callnum":"055-756-2900","weekday":"08:30 ~ 17:00","saturday":"08:30 ~ 13:00","sunday":"미운영","sample":"○"},
{"no":"589","sido":"경남","name":"고려병원","address":"경상남도 진주시 동진로 2","lat":"35.1784898","lng":"128.09205","callnum":"055-751-2525","weekday":"09:00 ~ 17:00","saturday":"09:00 ~ 13:00","sunday":"미운영","sample":"○"},
{"no":"590","sido":"경남","name":"반도병원","address":"경상남도 진주시 남강로701","lat":"35.1916806","lng":"128.0882874","callnum":"055-749-0200","weekday":"09:00 ~ 17:00","saturday":"09:00 ~ 13:00","sunday":"미운영","sample":"○"},
{"no":"591","sido":"경남","name":"진주복음병원","address":"경상남도 진주시 진양호로 370","lat":"35.1853288","lng":"128.0693728","callnum":"055-749-7119","weekday":"09:00 ~ 17:00","saturday":"미운영","sunday":"미운영","sample":"○"},
{"no":"592","sido":"경남","name":"진주세란병원","address":"경상남도 진주시 진주대로 829","lat":"35.1744867","lng":"128.0930006","callnum":"055-760-7575","weekday":"09:00 ~ 18:00","saturday":"09:00 ~ 13:00","sunday":"미운영","sample":"○"},
{"no":"593","sido":"경남","name":"경상국립대학교병원","address":"경상남도 진주시 강남로 79","lat":"35.1760266","lng":"128.0950115","callnum":"055-750-8939","weekday":"09:00 ~ 18:00","saturday":"미운영","sunday":"미운영","sample":"○"},
{"no":"594","sido":"경남","name":"한일병원","address":"경상남도 진주시 범골로 17","lat":"35.1669632","lng":"128.1285486","callnum":"055-750-1333","weekday":"09:00 ~ 17:00","saturday":"09:00 ~ 13:00","sunday":"미운영","sample":"○"},
{"no":"595","sido":"경남","name":"창원시 진해보건소","address":"경상남도 창원시 진해구 풍호동 1 진해보건소","lat":"35.1335883","lng":"128.7104073","callnum":"055-225-6160","weekday":"09:00 ~ 18:00","saturday":"09:00 ~ 18:00","sunday":"09:00 ~ 18:00","sample":"○"},
{"no":"596","sido":"경남","name":"연세에스병원","address":"경상남도 창원시 진해구 해원로32번길 13","lat":"35.1546427","lng":"128.6984621","callnum":"055-548-7700","weekday":"09:00 ~ 18:00","saturday":"09:00 ~ 12:00","sunday":"미운영","sample":"○"},
{"no":"597","sido":"경남","name":"세광병원","address":"경상남도 창원시 진해구 중원동로 55-1","lat":"35.1496873","lng":"128.6610826","callnum":"055-540-3700","weekday":"09:00 ~ 18:00","saturday":"09:00 ~ 12:00","sunday":"미운영","sample":"○"},
{"no":"598","sido":"경남","name":"창녕군보건소","address":"경상남도 창녕군 창녕읍 교리 996-1 창녕군보건소","lat":"35.5435899","lng":"128.4904015","callnum":"055-530-6217","weekday":"09:00 ~ 18:00","saturday":"09:00 ~ 18:00","sunday":"09:00 ~ 18:00","sample":"○"},
{"no":"599","sido":"경남","name":"태황의료재단한성병원","address":"경상남도 창녕군 창녕읍 교리1길 2","lat":"35.5421439","lng":"128.4935358","callnum":"055-530-5119","weekday":"00:00 ~ 24:00","saturday":"00:00 ~ 24:00","sunday":"00:00 ~ 24:00","sample":"○"},
{"no":"600","sido":"경남","name":"창원시 창원보건소","address":"경상남도 창원시 의창구 신월동 중앙대로162번길 9 창원보건소","lat":"35.2280958","lng":"128.6855417","callnum":"055-225-4281","weekday":"09:00 ~ 18:00","saturday":"09:00 ~ 18:00","sunday":"09:00 ~ 18:00","sample":"○"},
{"no":"601","sido":"경남","name":"창원경상국립대학교병원","address":"경상남도 창원시 성산구 삼정자로11","lat":"35.1991416","lng":"128.7069033","callnum":"055-214-1000","weekday":"09:00 ~ 17:00","saturday":"미운영","sunday":"미운영","sample":"○"},
{"no":"602","sido":"경남","name":"창원파티마병원","address":"경상남도 창원시 의창구 창이대로 45","lat":"35.2371713","lng":"128.6457289","callnum":"055-270-1020","weekday":"09:00 ~ 17:00","saturday":"09:00 ~ 12:00","sunday":"미운영","sample":"○"},
{"no":"603","sido":"경남","name":"창원한마음병원","address":"경상남도 창원시 성산구 원이대로682번길 21 ","lat":"35.2210888","lng":"128.6867034","callnum":"055-267-2000","weekday":"09:00 ~ 17:00","saturday":"09:00 ~ 12:00","sunday":"미운영","sample":"○"},
{"no":"604","sido":"경남","name":"통영시보건소","address":"경상남도 통영시 무전동 401-1 통영시보건소","lat":"34.8597587","lng":"128.4319208","callnum":"055-650-6055","weekday":"09:00 ~ 22:00","saturday":"09:00 ~ 22:00","sunday":"09:00 ~ 22:00","sample":"○"},
{"no":"605","sido":"경남","name":"통영적십자병원 ","address":"경상남도 통영시 중앙로97","lat":"34.8423753","lng":"128.4198789","callnum":"055-644-8901","weekday":"09:00 ~ 18:00","saturday":"09:00 ~ 12:30","sunday":"미운영","sample":"○"},
{"no":"606","sido":"경남","name":"하동군보건소","address":"경상남도 하동군 하동읍 읍내리 149-1 하동보건소","lat":"35.0667638","lng":"127.7526155","callnum":"055-882-4000","weekday":"09:00 ~ 18:00","saturday":"09:00 ~ 18:00","sunday":"09:00 ~ 18:00","sample":"○"},
{"no":"607","sido":"경남","name":"새하동병원","address":"경상남도 하동군 하동읍 화심길 39","lat":"35.082997","lng":"127.7388037","callnum":"055-880-4200","weekday":"09:00 ~ 17:00","saturday":"미운영","sunday":"미운영","sample":"○"},
{"no":"608","sido":"경남","name":"함안군보건소","address":"경상남도 함안군 가야읍 말산리 100번지","lat":"35.2757514","lng":"128.4102757","callnum":"055-580-3113","weekday":"09:00 ~ 18:00","saturday":"09:00 ~ 18:00","sunday":"09:00 ~ 18:00","sample":"○"},
{"no":"609","sido":"경남","name":"영동병원","address":"경상남도 함안군 칠원읍 용산2길 45-13","lat":"35.3089619","lng":"128.5155824","callnum":"055-586-2000","weekday":"09:00 ~ 18:00","saturday":"09:00 ~ 12:00","sunday":"미운영","sample":"○"},
{"no":"610","sido":"경남","name":"함양군보건소","address":"경상남도 함양군 함양읍 한들로 141","lat":"35.519672","lng":"127.7317848","callnum":"055-960-8040","weekday":"09:00 ~ 18:00","saturday":"09:00 ~ 18:00","sunday":"09:00 ~ 18:00","sample":"○"},
{"no":"611","sido":"경남","name":"함양성심병원","address":"경상남도 함양군 함양읍 고운로 70","lat":"35.5203696","lng":"127.7293238","callnum":"055-963-4322","weekday":"09:00 ~ 09:00","saturday":"09:00 ~ 09:00","sunday":"09:00 ~ 09:00","sample":"○"},
{"no":"612","sido":"경남","name":"합천군보건소","address":"경상남도 합천군 합천읍 합천리 524-1","lat":"35.5677856","lng":"128.1568098","callnum":"055-930-3683","weekday":"09:00 ~ 18:00","saturday":"09:00 ~ 18:00","sunday":"09:00 ~ 18:00","sample":"○"},
{"no":"613","sido":"경남","name":"산청군보건의료원","address":"경상남도 산청군 산청읍 지리 중앙로97","lat":"35.4160201","lng":"127.8842166","callnum":"055-970-7582","weekday":"09:00 ~ 18:00","saturday":"09:00 ~ 18:00","sunday":"09:00 ~ 18:00","sample":"○"},
{"no":"614","sido":"제주","name":"서귀포시(서귀포보건소)","address":"제주특별자치도 서귀포시 서홍동 447-3","lat":"33.2533305","lng":"126.5552823","callnum":"064-760-6092","weekday":"09:00 ~ 18:00","saturday":"09:00 ~ 18:00","sunday":"09:00 ~ 18:00","sample":"○"},
{"no":"615","sido":"제주","name":"서귀포열린병원","address":"제주특별자치도 서귀포시 일주동로 8638","lat":"33.2544671","lng":"126.5654581","callnum":"064-762-8001","weekday":"09:00 ~ 18:00","saturday":"09:00 ~ 12:00","sunday":"미운영","sample":"○"},
{"no":"616","sido":"제주","name":"서귀포의료원","address":"제주특별자치도 서귀포시 장수로 47","lat":"33.2558416","lng":"126.5642445","callnum":"064-730-3518","weekday":"00:00 ~ 24:00","saturday":"00:00 ~ 24:00","sunday":"00:00 ~ 24:00","sample":"○"},
{"no":"617","sido":"제주","name":"서귀포시(동부보건소)","address":"제주특별자치도 서귀포시 남원읍 남원리 2359-1 동부보건소","lat":"33.2755928","lng":"126.7034389","callnum":"064-760-6191","weekday":"09:00 ~ 18:00","saturday":"09:00 ~ 18:00","sunday":"09:00 ~ 18:00","sample":"○"},
{"no":"618","sido":"제주","name":"서귀포시(서부보건소)","address":"제주특별자치도 서귀포시 대정읍 최남단해안로15번길 12, 서귀포시 서부보건소","lat":"33.2187036","lng":"126.2533359","callnum":"064-760-6292","weekday":"09:00 ~ 18:00","saturday":"09:00 ~ 18:00","sunday":"09:00 ~ 18:00","sample":"○"},
{"no":"619","sido":"제주","name":"제주시제주보건소","address":"제주특별자치도 제주시 도남동 연삼로 264","lat":"33.49173998","lng":"126.5202893","callnum":"064-728-1410","weekday":"09:00 ~ 17:30","saturday":"09:00 ~ 17:30","sunday":"09:00 ~ 17:30","sample":"○"},
{"no":"620","sido":"제주","name":"제주대학교병원","address":"제주특별자치도 제주시 아라일동 아란13길 15","lat":"33.46717713","lng":"126.5457022","callnum":"064-717-1900","weekday":"00:00 ~ 24:00","saturday":"00:00 ~ 24:00","sunday":"00:00 ~ 24:00","sample":"○"},
{"no":"621","sido":"제주","name":"제주한라병원","address":"제주특별자치도 제주시 연동 도령로 65","lat":"33.49002433","lng":"126.4850812","callnum":"064-740-5158","weekday":"00:00 ~ 24:00","saturday":"00:00 ~ 24:00","sunday":"00:00 ~ 24:00","sample":"○"},
{"no":"622","sido":"제주","name":"한마음병원","address":"제주특별자치도 제주시 특별자치도, 연신로 52 ","lat":"33.49638091","lng":"126.546246","callnum":"064-750-9119","weekday":"00:00 ~ 24:00","saturday":"00:00 ~ 24:00","sunday":"00:00 ~ 24:00","sample":"○"},
{"no":"623","sido":"제주","name":"한국병원","address":"제주특별자치도 제주시 삼도일동 서광로 193 한국병원","lat":"33.50030238","lng":"126.5170269","callnum":"064-750-0119","weekday":"00:00 ~ 24:00","saturday":"00:00 ~ 24:00","sunday":"00:00 ~ 24:00","sample":"○"},
{"no":"624","sido":"제주","name":"중앙병원","address":"제주특별자치도 제주시 이호이동 월랑로 91","lat":"33.49243908","lng":"126.4707241","callnum":"064-786-7119","weekday":"00:00 ~ 24:00","saturday":"00:00 ~ 24:00","sunday":"00:00 ~ 24:00","sample":"○"},
{"no":"625","sido":"제주","name":"제주시(동부보건소)","address":"제주특별자치도 제주시 구좌읍 김녕리 1697-1 동부보건소 동부보건소","lat":"33.5545696","lng":"126.7509743","callnum":"064-728-4392","weekday":"09:00 ~ 17:30","saturday":"09:00 ~ 16:00","sunday":"09:00 ~ 16:00","sample":"○"},
{"no":"626","sido":"제주","name":"제주시(서부보건소)","address":"제주특별자치도 제주시 한림읍 한림리 966-1번지 (한림리)","lat":"33.412331","lng":"126.2696037","callnum":"064-728-4141","weekday":"09:00 ~ 17:30","saturday":"09:00 ~ 16:00","sunday":"09:00 ~ 16:00","sample":"○"}
]

