
[
{"no":"1","sido":"서울","name":"코로나19 중앙 예방접종센터","address":"서울특별시 중구 을지로 39길 29","lat":"37.5685527","lng":"127.0039522"},
{"no":"2","sido":"충남","name":"코로나19 중부권역 예방접종센터","address":"충청남도 천안시 동남구 천안대로 357","lat":"36.7799061","lng":"127.1633503"},
{"no":"3","sido":"광주","name":"코로나19 호남권역 예방접종센터","address":"광주광역시 동구 필문대로 365","lat":"35.1384128","lng":"126.9272012"},
{"no":"4","sido":"경남","name":"코로나19 영남권역 예방접종센터","address":"경상남도 양산시 물금읍 금오로 20","lat":"35.3274903","lng":"129.0061654"},
{"no":"5","sido":"대구","name":"코로나19 대구광역시 중구 예방접종센터","address":"대구광역시 중구 달성로 56","lat":"35.8686772","lng":"128.5834644"},
{"no":"6","sido":"서울","name":"코로나19 서울특별시 성동구 예방접종센터","address":"서울특별시 성동구 고산자로 270","lat":"37.5634201","lng":"127.0369364"},
{"no":"7","sido":"부산","name":"코로나19 부산광역시 부산진구 예방접종센터","address":"부산광역시 부산진구 시민공원로 73","lat":"35.1682391","lng":"129.0564513"},
{"no":"8","sido":"인천","name":"코로나19 인천광역시 연수구 예방접종센터","address":"인천광역시 연수구 경원대로 526","lat":"37.4302465","lng":"126.7025947"},
{"no":"9","sido":"광주","name":"코로나19 광주광역시 서구 예방접종센터","address":"광주광역시 서구 금화로 278","lat":"35.1345856","lng":"126.8797949"},
{"no":"10","sido":"대전","name":"코로나19 대전광역시 유성구 예방접종센터","address":"대전광역시 유성구 유성대로 976","lat":"36.3779751","lng":"127.3441131"},
{"no":"11","sido":"울산","name":"코로나19 울산광역시 중구 예방접종센터","address":"울산광역시 중구 염포로 85","lat":"35.5615487","lng":"129.3505619"},
{"no":"12","sido":"세종","name":"코로나19 세종특별자치시 예방접종센터","address":"세종특별자치시 달빛1로 227","lat":"36.5153777","lng":"127.2452862"},
{"no":"13","sido":"경기 ","name":"코로나19 경기도 수원시 예방접종센터","address":"경기도 수원시 영통구 월드컵로 206","lat":"37.2809435","lng":"127.0466256"},
{"no":"14","sido":"경기 ","name":"코로나19 경기도 고양시 일산동구 예방접종센터","address":"경기도 고양시 일산동구 호수로 595","lat":"37.6543991","lng":"126.7687737"},
{"no":"15","sido":"강원 ","name":"코로나19 강원도 원주시 예방접종센터","address":"강원도 원주시 서원대로 279","lat":"37.3388077","lng":"127.9410439"},
{"no":"16","sido":"충북","name":"코로나19 충청북도 청주시 예방접종센터","address":"충청북도 청주시 상당구 남일면 단재로 466","lat":"36.5897464","lng":"127.5051421"},
{"no":"17","sido":"충남","name":"코로나19 충청남도 천안시 서북구 예방접종센터","address":"충청남도 천안시 서북구 번영로 208","lat":"36.8198503","lng":"127.1142139"},
{"no":"18","sido":"전북","name":"코로나19 전라북도 전주시 예방접종센터","address":"전라북도 전주시 완산구 백제대로 310","lat":"35.8213866","lng":"127.1242788"},
{"no":"19","sido":"전남","name":"코로나19 전라남도 목포시 예방접종센터","address":"전라남도 목포시 대양로 286","lat":"34.8243356","lng":"126.4073265"},
{"no":"20","sido":"경북","name":"코로나19 경상북도 포항시 남구 예방접종센터","address":"경상북도 포항시 남구 희망대로 810","lat":"36.008051","lng":"129.3619416"},
{"no":"21","sido":"경남","name":"코로나19 경상남도 창원시 마산구 예방접종센터","address":"경상남도 창원시 마산회원구 삼호로 63","lat":"35.2219147","lng":"128.5808306"},
{"no":"22","sido":"제주","name":"코로나19 제주특별자치도 제주시 예방접종센터","address":"제주특별자치도 제주시 서광로2길 24","lat":"33.4961801","lng":"126.5154064"},
{"no":"23","sido":"서울","name":"코로나19 서울특별시 중랑구 예방접종센터","address":"서울특별시 중랑구 사가정로72길47","lat":"37.5793111","lng":"127.0957509"},
{"no":"24","sido":"서울","name":"코로나19 서울특별시 성북구 예방접종센터","address":"서울특별시 성북구 보문로 168","lat":"37.5893024","lng":"127.0167085"},
{"no":"25","sido":"서울","name":"코로나19 서울특별시 노원구 예방접종센터","address":"서울특별시 노원구 노원로22길 1","lat":"37.648163","lng":"127.0707117"},
{"no":"26","sido":"서울","name":"코로나19 서울특별시 은평구 예방접종센터","address":"서울특별시 은평구 녹번로 16","lat":"37.6037025","lng":"126.927911"},
{"no":"27","sido":"서울","name":"코로나19 서울특별시 동작구 예방접종센터","address":"서울특별시 동작구 사당로27길 232","lat":"37.4928059","lng":"126.9697446"},
{"no":"28","sido":"서울","name":"코로나19 서울특별시 송파구 예방접종센터","address":"서울특별시 송파구 양산로15","lat":"37.4907378","lng":"127.1428667"},
{"no":"29","sido":"부산","name":"코로나19 부산광역시 남구 예방접종센터","address":"부산광역시 남구 백운포로 110","lat":"35.1038777","lng":"129.1081813"},
{"no":"30","sido":"인천","name":"코로나19 인천광역시 서구 예방접종센터","address":"인천광역시 서구 봉수대로 806","lat":"37.5469839","lng":"126.6670552"},
{"no":"31","sido":"광주","name":"코로나19 광주광역시 남구 예방접종센터","address":"광주광역시 남구 화산로 110","lat":"35.1140898","lng":"126.90863"},
{"no":"32","sido":"울산","name":"코로나19 울산광역시 남구 예방접종센터","address":"울산광역시 남구 여천로 38","lat":"35.5228729","lng":"129.337709"},
{"no":"33","sido":"경기 ","name":"코로나19 경기도 성남시 분당구 예방접종센터","address":"경기도 성남시 분당구 탄천로 215","lat":"37.4103243","lng":"127.1204573"},
{"no":"34","sido":"경기 ","name":"코로나19 경기도 안양시 동안구 예방접종센터","address":"경기도 안양시 동안구 평촌대로 389","lat":"37.4052362","lng":"126.9476542"},
{"no":"35","sido":"경기 ","name":"코로나19 경기도 남양주시 예방접종센터","address":"경기도 남양주시 다산 지금로 91","lat":"37.60024134","lng":"127.1735509"},
{"no":"36","sido":"강원 ","name":"코로나19 강원도 강릉시 예방접종센터","address":"강원도 강릉시 수리골길 102","lat":"37.7790567","lng":"128.8964157"},
{"no":"37","sido":"강원 ","name":"코로나19 강원도 춘천시 예방접종센터","address":"강원도 춘천시 평화로 25","lat":"37.8834006","lng":"127.7200788"},
{"no":"38","sido":"강원 ","name":"코로나19 강원도 삼척시 예방접종센터","address":"강원도 삼척시 동해대로 4234","lat":"37.4560469","lng":"129.1729015"},
{"no":"39","sido":"충북","name":"코로나19 충청북도 충주시 예방접종센터","address":"충청북도 충주시 예성로 266","lat":"36.980982","lng":"127.936053"},
{"no":"40","sido":"충북","name":"코로나19 충청북도 음성군 예방접종센터","address":"충청북도 음성군 설성로 47","lat":"36.9314691","lng":"127.6854094"},
{"no":"41","sido":"충남","name":"코로나19 충청남도 아산시 예방접종센터","address":"충청남도 아산시 남부로 370-24","lat":"36.768359","lng":"127.0211986"},
{"no":"42","sido":"충남","name":"코로나19 충청남도 논산시 예방접종센터","address":"충청남도 논산시 체육로 110","lat":"36.1946137","lng":"127.1034075"},
{"no":"43","sido":"전북","name":"코로나19 전라북도 군산시 예방접종센터","address":"전라북도 군산시 번영로 281","lat":"35.9643362","lng":"126.747642"},
{"no":"44","sido":"전북","name":"코로나19 전라북도 정읍시 예방접종센터","address":"전라북도 정읍시 서부로 9","lat":"35.5696835","lng":"126.8441287"},
{"no":"45","sido":"전북","name":"코로나19 전라북도 남원시 예방접종센터","address":"전라북도 남원시 충정로 341","lat":"35.4304167","lng":"127.4042634"},
{"no":"46","sido":"전남","name":"코로나19 전라남도 여수시 예방접종센터","address":"전라남도 여수시 선소로 93","lat":"34.7610259","lng":"127.6678791"},
{"no":"47","sido":"전남","name":"코로나19 전라남도 순천시 예방접종센터","address":"전라남도 순천시 중앙로 235","lat":"34.9663167","lng":"127.4837929"},
{"no":"48","sido":"경남","name":"코로나19 경상남도 진주시 예방접종센터","address":"경상남도 진주시 남강로 1655","lat":"35.2079727","lng":"128.125505"},
{"no":"49","sido":"경남","name":"코로나19 경상남도 통영시 예방접종센터","address":"경상남도 통영시 북문2길 34","lat":"34.8509073","lng":"128.4290751"},
{"no":"50","sido":"서울","name":"코로나19 서울특별시 중구 예방접종센터 ","address":"서울특별시 중구퇴계로 387","lat":"37.5659496","lng":"127.0147969"},
{"no":"51","sido":"부산","name":"코로나19 부산광역시 금정구  예방접종센터 ","address":"부산광역시 금정구 체육공원로 7","lat":"35.2458643","lng":"129.0941778"},
{"no":"52","sido":"부산","name":"코로나19 부산광역시 북구  예방접종센터 ","address":"부산광역시 북구 금곡대로 46번길 50","lat":"35.2134336","lng":"129.0057446"},
{"no":"53","sido":"인천","name":"코로나19 인천광역시 부평구 예방접종센터 ","address":"인천광역시 부평구 체육관로 60","lat":"37.5076588","lng":"126.7379807"},
{"no":"54","sido":"대구","name":"코로나19 대구광역시 동구 예방접종센터 ","address":"대구광역시 동구 효동로2길 24","lat":"35.8796186","lng":"128.6519321"},
{"no":"55","sido":"대구","name":"코로나19 대구광역시 달서구 예방접종센터 ","address":"대구광역시 달서구 성서공단로22길 25","lat":"35.8323246","lng":"128.4956362"},
{"no":"56","sido":"울산","name":"코로나19 울산광역시 북구 예방접종센터 ","address":"울산광역시 북구 산업로 1020","lat":"35.5842766","lng":"129.3604211"},
{"no":"57","sido":"경기 ","name":"코로나19 경기도 안산시 단원구 예방접종센터 ","address":"경기도 안산시 단원구 적금로202","lat":"37.3262217","lng":"126.8278231"},
{"no":"58","sido":"경기 ","name":"코로나19 경기도 용인시 처인구 예방접종센터 ","address":"경기도 용인시 처인구 동백죽전대로 61","lat":"37.2496337","lng":"127.1651624"},
{"no":"59","sido":"경기 ","name":"코로나19 경기도 화성시 예방접종센터 ","address":"경기도 화성시 여울로2길 33","lat":"37.2051737","lng":"127.0514661"},
{"no":"60","sido":"경기 ","name":"코로나19 경기도 시흥시 예방접종센터 ","address":"경기도 시흥시 정왕대로 233번길 21","lat":"37.3478323","lng":"126.7404691"},
{"no":"61","sido":"충남","name":"코로나19 충청남도 서산시 예방접종센터 ","address":"충청남도 서산시 안견로 661","lat":"36.7978071","lng":"126.4360434"},
{"no":"62","sido":"전남","name":"코로나19 전라남도 광양시 예방접종센터 ","address":"전라남도 광양시 봉강면 매천로 695-20","lat":"34.9858816","lng":"127.5754258"},
{"no":"63","sido":"전남","name":"코로나19 전라남도 구례군 예방접종센터 ","address":"전라남도 구례군 구례읍 서시천로 76-11","lat":"35.2156314","lng":"127.468116"},
{"no":"64","sido":"전남","name":"코로나19 전라남도 해남군 예방접종센터 ","address":"전라남도 해남군 해남로 46","lat":"34.5702298","lng":"126.6121101"},
{"no":"65","sido":"전남","name":"코로나19 전라남도 영광군 예방접종센터 ","address":"전라남도 영광군 영광읍 월현로 170","lat":"35.2891784","lng":"126.4950863"},
{"no":"66","sido":"경북","name":"코로나19 경상북도 포항시 북구 예방접종센터 ","address":"경상북도 포항시 북구 새천년대로1460","lat":"36.077831","lng":"129.4065854"},
{"no":"67","sido":"경북","name":"코로나19 경상북도 안동시 예방접종센터 ","address":"경상북도 안동시 육사로 205","lat":"36.5597936","lng":"128.7279226"},
{"no":"68","sido":"경북","name":"코로나19 경상북도 영천시 예방접종센터 ","address":"경상북도 영천시 운동장로 55","lat":"35.9678126","lng":"128.9235912"},
{"no":"69","sido":"경북","name":"코로나19 경상북도 고령군 예방접종센터 ","address":"경상북도 고령군 대가야읍 주산순환길 91","lat":"35.7291432","lng":"128.2629142"},
{"no":"70","sido":"경북","name":"코로나19 경상북도 칠곡군 예방접종센터 ","address":"경상북도 칠곡군 왜관읍 관문로 1길 32","lat":"35.9917581","lng":"128.417522"},
{"no":"71","sido":"서울","name":"코로나19 서울특별시 구로구 예방접종센터","address":"서울특별시 구로구 가마산로25길 21","lat":"37.4969366","lng":"126.8896205"},
{"no":"72","sido":"서울","name":"코로나19 서울특별시 용산구 예방접종센터","address":"서울특별시 용산구 녹사평대로 150","lat":"37.5324491","lng":"126.9902895"},
{"no":"73","sido":"서울","name":"코로나19 서울특별시 광진구 예방접종센터","address":"서울특별시 광진구 뚝섬로52길 66","lat":"37.5292172","lng":"127.0776653"},
{"no":"74","sido":"서울","name":"코로나19 서울특별시 강북구 예방접종센터","address":"서울특별시 강북구 삼각산로 85","lat":"37.6408043","lng":"127.0133446"},
{"no":"75","sido":"서울","name":"코로나19 서울특별시 도봉구 예방접종센터","address":"서울특별시 도봉구 노해로69길 132","lat":"37.6576013","lng":"127.0509079"},
{"no":"76","sido":"서울","name":"코로나19 서울특별시 양천구 예방접종센터","address":"서울특별시 양천구 목동동로 81","lat":"37.5159104","lng":"126.8638313"},
{"no":"77","sido":"서울","name":"코로나19 서울특별시 강서구 예방접종센터","address":"서울특별시 강서구 허준로 221-22(가양동)","lat":"37.561157","lng":"126.8644236"},
{"no":"78","sido":"서울","name":"코로나19 서울특별시 금천구 예방접종센터","address":"서울특별시 금천구 독산동 1148","lat":"37.4589374","lng":"126.8961168"},
{"no":"79","sido":"서울","name":"코로나19 서울특별시 영등포구 예방접종센터","address":"서울특별시 영등포구 국회대로 596","lat":"37.5259399","lng":"126.9000967"},
{"no":"80","sido":"서울","name":"코로나19 서울특별시 관악구 예방접종센터","address":"서울특별시 관악구 낙성대로3길 37","lat":"37.4730624","lng":"126.9603157"},
{"no":"81","sido":"서울","name":"코로나19 서울특별시 강동구 예방접종센터","address":"서울특별시 강동구 상암로 168","lat":"37.5457082","lng":"127.1412192"},
{"no":"82","sido":"서울","name":"코로나19 서울특별시 서초구 예방접종센터","address":"서울특별시 서초구 강남대로 201","lat":"37.4818302","lng":"127.035825"},
{"no":"83","sido":"서울","name":"코로나19 서울특별시 종로구 예방접종센터","address":"서울특별시 종로구 지봉로5길 7-5","lat":"37.5734518","lng":"127.0143924"},
{"no":"84","sido":"서울","name":"코로나19 서울특별시 동대문구 예방접종센터","address":"서울특별시 동대문구 답십리로 210-3","lat":"37.5723857","lng":"127.0638543"},
{"no":"85","sido":"서울","name":"코로나19 서울특별시 서대문구 예방접종센터","address":"서울특별시 서대문구 북아현로 51","lat":"37.5619353","lng":"126.9565804"},
{"no":"86","sido":"서울","name":"코로나19 서울특별시 마포구 예방접종센터","address":"서울특별시 마포구 월드컵로25길 190","lat":"37.5567621","lng":"126.8969615"},
{"no":"87","sido":"서울","name":"코로나19 서울특별시 강남구 예방접종센터","address":"서울특별시 강남구 일원동 4-12","lat":"37.4952467","lng":"127.0891659"},
{"no":"88","sido":"대구","name":"코로나19 대구광역시 북구 예방접종센터","address":"대구광역시 북구 고성로 191 (고성동3가)","lat":"35.8822595","lng":"128.5872631"},
{"no":"89","sido":"대구","name":"코로나19 대구광역시 서구 예방접종센터","address":"대구광역시 서구 문화로 72 (이현동)","lat":"35.8734369","lng":"128.5409305"},
{"no":"90","sido":"인천","name":"코로나19 인천광역시 동구 예방접종센터","address":"인천광역시 동구 염전로 30","lat":"37.4843583","lng":"126.6476017"},
{"no":"91","sido":"인천","name":"코로나19 인천광역시 강화군 예방접종센터","address":"인천광역시 강화군 강화읍 고비고개로19번길 12","lat":"37.7452841","lng":"126.4745798"},
{"no":"92","sido":"광주","name":"코로나19 광주광역시 동구 예방접종센터","address":"광주광역시 동구 남문로 646, 4층","lat":"35.1285845","lng":"126.9309288"},
{"no":"93","sido":"광주","name":"코로나19 광주광역시 북구 예방접종센터","address":"광주광역시 북구 우치로 91, 전라남도대학교","lat":"35.1758777","lng":"126.9073986"},
{"no":"94","sido":"광주","name":"코로나19 광주광역시 광산구 예방접종센터","address":"광주광역시 광산구 첨단월봉로 99, 광주보훈병원","lat":"35.2079316","lng":"126.8491249"},
{"no":"95","sido":"대전","name":"코로나19 대전광역시 동구 예방접종센터","address":"대전광역시 동구 가양로 9","lat":"36.3394755","lng":"127.4381428"},
{"no":"96","sido":"대전","name":"코로나19 대전광역시 중구 예방접종센터","address":"대전광역시 중구 대종로 373(부사동)","lat":"36.3157544","lng":"127.4304842"},
{"no":"97","sido":"대전","name":"코로나19 대전광역시 서구 예방접종센터","address":"대전광역시 서구 배재로197번길 41(도마동)","lat":"36.325508","lng":"127.3681203"},
{"no":"98","sido":"대전","name":"코로나19 대전광역시 대덕구 예방접종센터","address":"대전광역시 대덕구 쌍청당로 25","lat":"36.3642867","lng":"127.4343095"},
{"no":"99","sido":"울산","name":"코로나19 울산광역시 동구 예방접종센터","address":"울산광역시 동구 봉수로 285","lat":"35.5119378","lng":"129.4222089"},
{"no":"100","sido":"울산","name":"코로나19 울산광역시 울주군 예방접종센터","address":"울산광역시 울주군 범서읍 구영로 101-16","lat":"35.5743848","lng":"129.2449252"},
{"no":"101","sido":"경기 ","name":"코로나19 경기도 광명시 예방접종센터","address":"경기도 광명시 오리로 703(하안동)","lat":"37.4627276","lng":"126.8709893"},
{"no":"102","sido":"경기 ","name":"코로나19 경기도 의정부시 예방접종센터","address":"경기도 의정부시 의정부동 161-10","lat":"37.7369888","lng":"127.0473653"},
{"no":"103","sido":"경기 ","name":"코로나19 경기도 평택시 송탄 예방접종센터","address":"경기도 평택시 장안웃길 149","lat":"37.0658443","lng":"127.0707793"},
{"no":"104","sido":"경기 ","name":"코로나19 경기도 이천시 예방접종센터","address":"경기도 이천시 부발읍 중부대로 1696","lat":"37.2865857","lng":"127.4963303"},
{"no":"105","sido":"경기 ","name":"코로나19 경기도 여주시 예방접종센터","address":"경기도 여주시 영릉로 123","lat":"37.2930881","lng":"127.6238841"},
{"no":"106","sido":"경기 ","name":"코로나19 경기도 파주시 예방접종센터","address":"경기도 파주시 시민회관길 33","lat":"37.7588941","lng":"126.7806279"},
{"no":"107","sido":"경기 ","name":"코로나19 경기도 부천시 예방접종센터","address":"경기도 부천시 석천로 293","lat":"37.5131543","lng":"126.7634628"},
{"no":"108","sido":"경기 ","name":"코로나19 경기도 양평군 예방접종센터","address":"경기도 양평군 양평읍 마유산로 11","lat":"37.4967827","lng":"127.4857502"},
{"no":"109","sido":"경기 ","name":"코로나19 경기도 하남시 예방접종센터","address":"경기도 하남시 아리수로 600","lat":"37.5669487","lng":"127.1940198"},
{"no":"110","sido":"경기 ","name":"코로나19 경기도 의왕시 예방접종센터","address":"경기도 의왕시 문화공원로 33","lat":"37.3418074","lng":"126.9719126"},
{"no":"111","sido":"경기 ","name":"코로나19 경기도 김포시 예방접종센터","address":"경기도 김포시 사우중로26","lat":"37.6171335","lng":"126.7180207"},
{"no":"112","sido":"경기 ","name":"코로나19 경기도 광주시 예방접종센터","address":"경기도 광주시 오포읍 청석로 85","lat":"37.3956288","lng":"127.2586297"},
{"no":"113","sido":"경기 ","name":"코로나19 경기도 안양시 만안구 예방접종센터","address":"경기도 안양시 만안구 문예로36번길 16","lat":"37.3848278","lng":"126.931645"},
{"no":"114","sido":"경기 ","name":"코로나19 경기도 군포시 예방접종센터","address":"경기도 군포시 산본로 267","lat":"37.3536455","lng":"126.9360264"},
{"no":"115","sido":"경기 ","name":"코로나19 경기도 포천시 예방접종센터","address":"경기도 포천시 군내면 호국로 1518","lat":"37.8884362","lng":"127.2008282"},
{"no":"116","sido":"경기 ","name":"코로나19 경기도 구리시 예방접종센터","address":"경기도 구리시 건원대로34번길 90","lat":"37.6051013","lng":"127.145656"},
{"no":"117","sido":"경기 ","name":"코로나19 경기도 고양시 덕양구 예방접종센터","address":"경기도 고양시 덕양구 어울림로 33","lat":"37.6496183","lng":"126.8356658"},
{"no":"118","sido":"강원 ","name":"코로나19 강원도 동해시 예방접종센터","address":"강원도 동해시 덕골길 10","lat":"37.5169021","lng":"129.0999414"},
{"no":"119","sido":"강원 ","name":"코로나19 강원도 태백시 예방접종센터","address":"강원도 태백시 고원로 203","lat":"37.1719068","lng":"128.9880259"},
{"no":"120","sido":"강원 ","name":"코로나19 강원도 속초시 예방접종센터","address":"강원도 속초시 동해대로 4229","lat":"38.196539","lng":"128.5771187"},
{"no":"121","sido":"강원 ","name":"코로나19 강원도 영월군 예방접종센터","address":"강원도 영월군 영월읍 제방안길 100","lat":"37.1762339","lng":"128.4619346"},
{"no":"122","sido":"강원 ","name":"코로나19 강원도 평창군 예방접종센터","address":"강원도 평창군 평창읍 산책길 38","lat":"37.3601503","lng":"128.3948748"},
{"no":"123","sido":"강원 ","name":"코로나19 강원도 정선군 예방접종센터","address":"강원도 정선군 정선읍 애산로 60","lat":"37.3773759","lng":"128.6746409"},
{"no":"124","sido":"강원 ","name":"코로나19 강원도 인제군 예방접종센터","address":"강원도 인제군 인제읍 비봉로44번길 113","lat":"38.0583317","lng":"128.1657226"},
{"no":"125","sido":"강원 ","name":"코로나19 충청북도 고성군 예방접종센터","address":"강원도 고성군 간성읍 수성로 87","lat":"38.3764704","lng":"128.4651145"},
{"no":"126","sido":"충북","name":"코로나19 충청북도 청주시 서원구 예방접종센터","address":"충청북도 청주시 서원구 사직대로 229","lat":"36.638123","lng":"127.4714865"},
{"no":"127","sido":"충북","name":"코로나19 충청북도 제천시 예방접종센터","address":"충청북도 제천시 숭의로 85(화산동)","lat":"37.1308454","lng":"128.2153829"},
{"no":"128","sido":"충북","name":"코로나19 충청북도 옥천군 예방접종센터","address":"충청북도 옥천군 옥천읍 관성로 53","lat":"36.3023662","lng":"127.5745165"},
{"no":"129","sido":"충남","name":"코로나19 충청남도 공주시 예방접종센터","address":"충청남도 공주시 고마나루길 51-14","lat":"36.4625664","lng":"127.1068927"},
{"no":"130","sido":"충남","name":"코로나19 충청남도 보령시 예방접종센터","address":"충청남도 보령시 보령남로 339","lat":"36.3296672","lng":"126.6015319"},
{"no":"131","sido":"충남","name":"코로나19 충청남도 부여군 예방접종센터","address":"충청남도 부여군 규암면 호수로 82","lat":"36.2783073","lng":"126.8642005"},
{"no":"132","sido":"충남","name":"코로나19 충청남도 서천군 예방접종센터","address":"충청남도 서천군 마서면 마서로 400","lat":"36.0594509","lng":"126.6647448"},
{"no":"133","sido":"충남","name":"코로나19 충청남도 예산군 예방접종센터","address":"충청남도 예산군 예산읍 예산로 352","lat":"36.677008","lng":"126.8601346"},
{"no":"134","sido":"충남","name":"코로나19 충청남도 태안군 예방접종센터","address":"충청남도 태안군 태안읍 백화로 200","lat":"36.7542036","lng":"126.3121361"},
{"no":"135","sido":"전북","name":"코로나19 전라북도 익산시 예방접종센터","address":"전라북도 익산시 무왕로 1397","lat":"35.9682507","lng":"127.0082087"},
{"no":"136","sido":"충남","name":"코로나19 충청남도 당진시 예방접종센터","address":"충청남도 당진시 송악읍 틀무시로 830","lat":"36.9260836","lng":"126.738934"},
{"no":"137","sido":"전북","name":"코로나19 전라북도 진안군 예방접종센터","address":"전라북도 진안군 진안읍 우화2길 35번지","lat":"35.7887569","lng":"127.4296992"},
{"no":"138","sido":"전북","name":"코로나19 전라북도 고창군 예방접종센터","address":"전라북도 고창군 고창읍 운동장길 36","lat":"35.4326546","lng":"126.7241791"},
{"no":"139","sido":"전남","name":"코로나19 전라남도 나주시 예방접종센터","address":"전라남도 나주시 영산강변로 99(송월동)","lat":"35.0109013","lng":"126.7181421"},
{"no":"140","sido":"전남","name":"코로나19 전라남도 담양군 예방접종센터","address":"전라남도 담양군 담양읍 지침6길 29","lat":"35.3163511","lng":"126.9854178"},
{"no":"141","sido":"전남","name":"코로나19 전라남도 곡성군 예방접종센터","address":"전라남도 곡성군 곡성읍 곡성로 855","lat":"35.281283","lng":"127.2986725"},
{"no":"142","sido":"전남","name":"코로나19 전라남도 고흥군 예방접종센터","address":"전라남도 고흥군 고흥읍 고흥로 1892-67","lat":"34.6142653","lng":"127.2985613"},
{"no":"143","sido":"전남","name":"코로나19 전라남도 보성군 예방접종센터","address":"전라남도 보성군 보성읍 용문길 18","lat":"34.7730661","lng":"127.0943243"},
{"no":"144","sido":"전남","name":"코로나19 전라남도 장흥군 예방접종센터","address":"전라남도 장흥군 장흥읍 읍성로 5-28","lat":"34.6692692","lng":"126.8921186"},
{"no":"145","sido":"전남","name":"코로나19 전라남도 화순군 예방접종센터","address":"전라남도 화순군 화순읍 학포로 2698","lat":"35.0487323","lng":"126.9665748"},
{"no":"146","sido":"전남","name":"코로나19 전라남도 강진군 예방접종센터","address":"전라남도 강진군 강진읍 종합운동장길 60","lat":"34.6446406","lng":"126.7805567"},
{"no":"147","sido":"전남","name":"코로나19 전라남도 영암군 예방접종센터","address":"전라남도 영암군 영암읍 영암로 1527","lat":"34.7950287","lng":"126.6972451"},
{"no":"148","sido":"전남","name":"코로나19 전라남도 무안군 예방접종센터","address":"전라남도 무안군 현경면 공항로 345","lat":"35.0030026","lng":"126.4477103"},
{"no":"149","sido":"전남","name":"코로나19 전라남도 함평군 예방접종센터","address":"전라남도 함평군 대동면 함장로 1377","lat":"35.0621171","lng":"126.5432355"},
{"no":"150","sido":"전남","name":"코로나19 전라남도 장성군 예방접종센터","address":"전라남도 장성군 장성읍 청운7길 10","lat":"35.3044247","lng":"126.785735"},
{"no":"151","sido":"전남","name":"코로나19 전라남도 완도군 예방접종센터","address":"전라남도 완도군 완도읍 개포로 111","lat":"34.3160993","lng":"126.7411738"},
{"no":"152","sido":"전남","name":"코로나19 전라남도 진도군 예방접종센터","address":"전라남도 진도군 진도읍 공설운동장길 57","lat":"34.4771155","lng":"126.2799947"},
{"no":"153","sido":"전남","name":"코로나19 전라남도 신안군 예방접종센터","address":"전라남도 신안군 압해읍 복룡로 120","lat":"34.874296","lng":"126.3122941"},
{"no":"154","sido":"경북","name":"코로나19 경상북도 경주시 예방접종센터","address":"경상북도 경주시 황성공원로 29","lat":"35.8606481","lng":"129.2090853"},
{"no":"155","sido":"경북","name":"코로나19 경상북도 문경시 예방접종센터","address":"경상북도 문경시 점고길21","lat":"36.5944323","lng":"128.1855842"},
{"no":"156","sido":"경북","name":"코로나19 경상북도 경산시 예방접종센터","address":"경상북도 경산시 남매로 100","lat":"35.8204616","lng":"128.744131"},
{"no":"157","sido":"경북","name":"코로나19 경상북도 의성군 예방접종센터","address":"경상북도 의성군 의성읍 충효로 88","lat":"36.3552588","lng":"128.7027495"},
{"no":"158","sido":"경북","name":"코로나19 경상북도 청송군 예방접종센터","address":"경상북도 청송군 청송읍 의료원길 19","lat":"36.4311184","lng":"129.0519046"},
{"no":"159","sido":"경북","name":"코로나19 경상북도 봉화군 예방접종센터","address":"경상북도 봉화군 봉화읍 내성로 4길 6-44","lat":"36.8884074","lng":"128.7428214"},
{"no":"160","sido":"경남","name":"코로나19 경상남도 창원시 예방접종센터","address":"경상남도 창원시 성산구 비음로 97","lat":"35.221912","lng":"128.7067712"},
{"no":"161","sido":"경남","name":"코로나19 경상남도 사천시 예방접종센터","address":"경상남도 사천시 용현면 시청로77","lat":"35.0035002","lng":"128.0644642"},
{"no":"162","sido":"경남","name":"코로나19 경상남도 김해시 예방접종센터","address":"경상남도 김해시 가야의길 98-19","lat":"35.2347582","lng":"128.8736672"},
{"no":"163","sido":"경남","name":"코로나19 경상남도 밀양시 예방접종센터","address":"경상남도 밀양시 삼문송림길 25","lat":"35.4883886","lng":"128.7573681"},
{"no":"164","sido":"경남","name":"코로나19 경상남도 거제시 예방접종센터","address":"경상남도 거제시 계룡로11길 35","lat":"34.8824815","lng":"128.6166658"},
{"no":"165","sido":"경남","name":"코로나19 경상남도 양산시 예방접종센터","address":"경상남도 양산시 양산대로 849","lat":"35.3463952","lng":"129.0335509"},
{"no":"166","sido":"경남","name":"코로나19 경상남도 의령군 예방접종센터","address":"경상남도 의령군 의령읍 의병로8길 44","lat":"35.315549","lng":"128.256499"},
{"no":"167","sido":"경남","name":"코로나19 경상남도 함안군 예방접종센터","address":"경상남도 함안군 가야읍 함안대로 619-4","lat":"35.2802828","lng":"128.3975798"},
{"no":"168","sido":"경남","name":"코로나19 경상남도 창녕군 예방접종센터","address":"경상남도 창녕군 창녕읍 우포2로 1189-25","lat":"35.5444284","lng":"128.4903405"},
{"no":"169","sido":"경남","name":"코로나19 경상남도 고성군 예방접종센터","address":"경상남도 고성군 고성읍 송학고분로 179","lat":"34.978592","lng":"128.3103264"},
{"no":"170","sido":"경남","name":"코로나19 경상남도 남해군 예방접종센터","address":"경상남도 남해군 남해읍 선소로12","lat":"34.8451138","lng":"127.8995432"},
{"no":"171","sido":"경남","name":"코로나19 경상남도 하동군 예방접종센터","address":"경상남도 하동군 군청로31","lat":"35.0669265","lng":"127.7528343"},
{"no":"172","sido":"경남","name":"코로나19 경상남도 산청군 예방접종센터","address":"경상남도 산청군 금서면 친환경로2631번길 39","lat":"35.4220913","lng":"127.8711476"},
{"no":"173","sido":"경남","name":"코로나19 경상남도 함양군 예방접종센터","address":"경상남도 함양군 함양읍 용평리 637-1","lat":"35.5201073","lng":"127.7329631"},
{"no":"174","sido":"경남","name":"코로나19 경상남도 거창군 예방접종센터","address":"경상남도 거창군 거창읍 양평리 1160","lat":"35.6939945","lng":"127.9279696"},
{"no":"175","sido":"경남","name":"코로나19 경상남도 합천군 예방접종센터","address":"경상남도 합천군 합천읍 장수로 1","lat":"35.5617336","lng":"128.1527164"},
{"no":"176","sido":"부산","name":"코로나19 부산광역시 영도구 예방접종센터","address":"부산광역시 영도구 해양로301번길 17(동삼동)","lat":"35.0803262","lng":"129.0789909"},
{"no":"177","sido":"부산","name":"코로나19 부산광역시 사하구 예방접종센터","address":"부산광역시 사하구 하신번영로 175","lat":"35.0981731","lng":"128.9600937"},
{"no":"178","sido":"부산","name":"코로나19 부산광역시 기장군 예방접종센터","address":"부산광역시 기장군 기장대로 650","lat":"35.2520805","lng":"129.2234732"},
{"no":"179","sido":"대구","name":"코로나19 대구광역시 수성구 예방접종센터","address":"대구광역시 수성구 미술관로 88 (삼덕동)","lat":"35.8284995","lng":"128.6789729"},
{"no":"180","sido":"대구","name":"코로나19 대구광역시 달성군 예방접종센터","address":"대구광역시 달성군 화원읍 성천로 9","lat":"35.7993909","lng":"128.4865916"},
{"no":"181","sido":"인천","name":"코로나19 인천광역시 계양구 예방접종센터","address":"인천광역시 계양구 봉오대로 855","lat":"37.5327152","lng":"126.7463383"},
{"no":"182","sido":"경기 ","name":"코로나19 경기도 남양주시 예방접종센터","address":"경기도 남양주시 진접읍 금강로 1509-24","lat":"37.7271148","lng":"127.1897121"},
{"no":"183","sido":"경기 ","name":"코로나19 경기도 수원시 권선구 예방접종센터","address":"경기도 수원시 권선구 오목천로 270","lat":"37.2477405","lng":"126.9861319"},
{"no":"184","sido":"경기 ","name":"코로나19 경기도 연천군 예방접종센터","address":"경기도 연천군 전곡읍 은대성로95","lat":"38.0234517","lng":"127.0609007"},
{"no":"185","sido":"강원 ","name":"코로나19 강원도 양양군 예방접종센터","address":"강원도 양양군 양양읍 양양로 114-5","lat":"38.0741922","lng":"128.6168114"},
{"no":"186","sido":"충북","name":"코로나19 충청북도 영동군 예방접종센터","address":"충청북도 영동군 반곡동길 7","lat":"36.1684702","lng":"127.7759658"},
{"no":"187","sido":"충북","name":"코로나19 충청북도 단양군 예방접종센터","address":"충청북도 단양군 단양읍 별곡3로19","lat":"36.9873951","lng":"128.3650133"},
{"no":"188","sido":"충남","name":"코로나19 충청남도 계룡시 예방접종센터","address":"충청남도 계룡시 엄사면 문화1로51","lat":"36.2698334","lng":"127.2332765"},
{"no":"189","sido":"충남","name":"코로나19 충청남도 금산군 예방접종센터","address":"충청남도 금산군 금산읍 사직로 20","lat":"36.1013837","lng":"127.4790802"},
{"no":"190","sido":"충남","name":"코로나19 충청남도 청양군 예방접종센터","address":"충청남도 청양군 청양읍 충절로 1199","lat":"36.4528796","lng":"126.7925977"},
{"no":"191","sido":"충남","name":"코로나19 충청남도 홍성군 예방접종센터","address":"충청남도 홍성군 홍성읍 홍덕서로 78","lat":"36.6079316","lng":"126.6439497"},
{"no":"192","sido":"전북","name":"코로나19 전라북도 김제시 예방접종센터","address":"전라북도 김제시 도작로 224-98","lat":"35.8147963","lng":"126.9022762"},
{"no":"193","sido":"전북","name":"코로나19 전라북도 완주군 예방접종센터","address":"전라북도 완주군 삼례읍 삼봉로 215","lat":"35.9199655","lng":"127.0932323"},
{"no":"194","sido":"전북","name":"코로나19 전라북도 장수군 예방접종센터","address":"전라북도 장수군 장수읍 한누리로 393","lat":"35.6412966","lng":"127.5182675"},
{"no":"195","sido":"전북","name":"코로나19 전라북도 임실군 예방접종센터","address":"전라북도 임실군 임실읍 호국로 1703","lat":"35.6150212","lng":"127.2871724"},
{"no":"196","sido":"전북","name":"코로나19 전라북도 순창군 예방접종센터","address":"전라북도 순창군 장류로 407-11","lat":"35.377471","lng":"127.1473598"},
{"no":"197","sido":"전북","name":"코로나19 전라북도 부안군 예방접종센터","address":"전라북도 부안군 부안읍 예술회관길 11","lat":"35.7243405","lng":"126.7256015"},
{"no":"198","sido":"경북","name":"코로나19 경상북도 김천시 예방접종센터","address":"경상북도 김천시 운동장길 1","lat":"36.143115","lng":"128.0865743"},
{"no":"199","sido":"경북","name":"코로나19 경상북도 영주시 예방접종센터","address":"경상북도 영주시 가흥로109","lat":"36.8080066","lng":"128.6077602"},
{"no":"200","sido":"경북","name":"코로나19 경상북도 상주시 예방접종센터","address":"경상북도 상주시 북상주로 24-7","lat":"36.4321263","lng":"128.1628687"},
{"no":"201","sido":"경북","name":"코로나19 경상북도 영덕군 예방접종센터","address":"경상북도 영덕군 영덕읍 강변길 290","lat":"36.4177424","lng":"129.3654816"},
{"no":"202","sido":"경북","name":"코로나19 경상북도 예천군 예방접종센터","address":"경상북도 예천군 예천읍 충효로 111","lat":"36.647187","lng":"128.4379311"},
{"no":"203","sido":"경남","name":"코로나19 경상남도 창원시 진해구 예방접종센터","address":"경상남도 창원시 진해구 진해대로 1101","lat":"35.1335883","lng":"128.7104073"},
{"no":"204","sido":"제주","name":"코로나19 제주특별자치도 서귀포시 예방접종센터","address":"제주특별자치도 서귀포시 장수로 47","lat":"33.2558416","lng":"126.5642445"},
{"no":"205","sido":"서울","name":"코로나19 서울특별시 강남구 예방접종센터","address":"서울특별시 강남구 압구정로 161","lat":"37.5268378","lng":"127.027055"},
{"no":"206","sido":"부산","name":"코로나19 부산광역시 서구 예방접종센터","address":"부산광역시 서구 구덕로 127","lat":"35.0963325","lng":"129.022061"},
{"no":"207","sido":"부산","name":"코로나19 부산광역시 해운대구 예방접종센터","address":"부산광역시 해운대구 센텀중앙로 170","lat":"35.1816772","lng":"129.1208081"},
{"no":"208","sido":"부산","name":"코로나19 부산광역시 사상구 예방접종센터","address":"부산광역시 사상구 백양대로 420(주례동)","lat":"35.1534229","lng":"129.007464"},
{"no":"209","sido":"부산","name":"코로나19 부산광역시 중구 예방접종센터","address":"부산광역시 중구 중구로 71","lat":"35.1042731","lng":"129.0285438"},
{"no":"210","sido":"부산","name":"코로나19 부산광역시 동구 예방접종센터","address":"부산광역시 동구 수정동 79-711","lat":"35.1284716","lng":"129.0489923"},
{"no":"211","sido":"부산","name":"코로나19 부산광역시 동래구 예방접종센터","address":"부산광역시 동래구 사직로 55-32","lat":"35.1922961","lng":"129.0606827"},
{"no":"212","sido":"부산","name":"코로나19 부산광역시 강서구 예방접종센터","address":"부산광역시 강서구 체육공원로 43","lat":"35.2095307","lng":"128.9715179"},
{"no":"213","sido":"부산","name":"코로나19 부산광역시 연제구 예방접종센터","address":"부산광역시 연제구 쌍미천로 132","lat":"35.1842495","lng":"129.0878177"},
{"no":"214","sido":"부산","name":"코로나19 부산광역시 수영구 예방접종센터","address":"부산광역시 수영구 수영로521번길 77","lat":"35.1527373","lng":"129.107702"},
{"no":"215","sido":"대구","name":"코로나19 대구광역시 남구 예방접종센터","address":"대구광역시 남구 앞산순환로 478","lat":"35.8313037","lng":"128.5769703"},
{"no":"216","sido":"대구","name":"코로나19 대구광역시 달서구 예방접종센터","address":"대구광역시 달서구 갈밭남로 76","lat":"35.8016031","lng":"128.5365043"},
{"no":"217","sido":"인천","name":"코로나19 인천광역시 중구 예방접종센터","address":"인천광역시 중구 영종해안북로 1000-26","lat":"37.4957922","lng":"126.4724324"},
{"no":"218","sido":"인천","name":"코로나19 인천광역시 미추홀구 예방접종센터","address":"인천광역시 미추홀구 석정로 165","lat":"37.4724159","lng":"126.6543625"},
{"no":"219","sido":"인천","name":"코로나19 인천광역시 남동구 예방접종센터","address":"인천광역시 남동구 독점로29번길 16","lat":"37.4526012","lng":"126.710007"},
{"no":"220","sido":"인천","name":"코로나19 인천광역시 서구 예방접종센터","address":"인천광역시 서구 완정로92번길 18","lat":"37.6005895","lng":"126.6658615"},
{"no":"221","sido":"인천","name":"코로나19 인천광역시 옹진군 예방접종센터","address":"인천광역시 옹진군 영흥면 영흥로 348번길 175-29","lat":"37.259168","lng":"126.4725127"},
{"no":"222","sido":"경기 ","name":"코로나19 경기도 동두천시 예방접종센터","address":"경기도 동두천시 어수로4(상패동)","lat":"37.9052832","lng":"127.0435395"},
{"no":"223","sido":"경기 ","name":"코로나19 경기도 오산시 예방접종센터","address":"경기도 오산시 경기도동로 33","lat":"37.1586217","lng":"127.075263"},
{"no":"224","sido":"경기 ","name":"코로나19 경기도 양주시 예방접종센터","address":"경기도 양주시 평화로1215","lat":"37.799203","lng":"127.045068"},
{"no":"225","sido":"경기 ","name":"코로나19 경기도 수원시 장안구 예방접종센터","address":"경기도 수원시 장안구 경수대로 893","lat":"37.2989799","lng":"127.0100108"},
{"no":"226","sido":"경기 ","name":"코로나19 경기도 수원시 팔달구 예방접종센터","address":"경기도 수원시 팔달구 권광로 293","lat":"37.2739732","lng":"127.0348966"},
{"no":"227","sido":"경기 ","name":"코로나19 경기도 화성시 예방접종센터","address":"경기도 화성시 향남읍 향남로 470","lat":"37.1375596","lng":"126.9243045"},
{"no":"228","sido":"경기 ","name":"코로나19 경기도 성남시 수정구 예방접종센터","address":"경기도 성남시 수정구 탄리로 57","lat":"37.4410761","lng":"127.1361106"},
{"no":"229","sido":"경기 ","name":"코로나19 경기도 성남시 중원구 예방접종센터","address":"경기도 성남시 중원구 제일로 60","lat":"37.4326767","lng":"127.138388"},
{"no":"230","sido":"경기 ","name":"코로나19 경기도 안산시 상록구 예방접종센터","address":"경기도 안산시 상록구 석호로226","lat":"37.2933544","lng":"126.855796"},
{"no":"231","sido":"경기 ","name":"코로나19 경기도 안성시 예방접종센터","address":"경기도 안성시 남파로 95","lat":"37.0173543","lng":"127.2603654"},
{"no":"232","sido":"경기 ","name":"코로나19 경기도 용인시 수지구 예방접종센터","address":"경기도 용인시 수지구 포은대로 435","lat":"37.3220992","lng":"127.097612"},
{"no":"233","sido":"경기 ","name":"코로나19 경기도 용인시 기흥구 예방접종센터","address":"경기도 용인시 기흥구 언남로 74","lat":"37.2984399","lng":"127.1354549"},
{"no":"234","sido":"경기 ","name":"코로나19 경기도 고양시 일산서구 예방접종센터","address":"경기도 고양시 일산서구 중앙로 1601","lat":"37.6762381","lng":"126.7421701"},
{"no":"235","sido":"경기 ","name":"코로나19 경기도 시흥시 예방접종센터","address":"경기도 시흥시 서해안로 1589","lat":"37.4477446","lng":"126.784815"},
{"no":"236","sido":"경기 ","name":"코로나19 경기도 김포시 예방접종센터","address":"경기도 김포시 김포한강8로 198-3","lat":"37.6404593","lng":"126.6461363"},
{"no":"237","sido":"경기 ","name":"코로나19 경기도 평택시 예방접종센터","address":"경기도 평택시 평남로 616","lat":"36.9885185","lng":"127.1083191"},
{"no":"238","sido":"경기 ","name":"코로나19 경기도 과천시 예방접종센터","address":"경기도 과천시 참마을로9","lat":"37.4267283","lng":"127.0008289"},
{"no":"239","sido":"경기 ","name":"코로나19 경기도 가평군 예방접종센터","address":"경기도 가평군 가평읍 문화로 131","lat":"37.8255288","lng":"127.504231"},
{"no":"240","sido":"강원 ","name":"코로나19 강원도 홍천군 예방접종센터","address":"강원도 홍천군 홍천읍 태학리 310-3","lat":"37.7066787","lng":"127.9069795"},
{"no":"241","sido":"강원 ","name":"코로나19 강원도 횡성군 예방접종센터","address":"강원도 횡성군  문화체육로 57","lat":"37.4960452","lng":"127.9892567"},
{"no":"242","sido":"강원 ","name":"코로나19 강원도 철원군 예방접종센터","address":"강원도 철원군 갈말읍 갈말로53-1","lat":"38.1593695","lng":"127.3009766"},
{"no":"243","sido":"강원 ","name":"코로나19 강원도 화천군 예방접종센터","address":"강원도 화천군 하남면 춘화로 3351","lat":"38.0984724","lng":"127.7060232"},
{"no":"244","sido":"강원 ","name":"코로나19 강원도 양구군 예방접종센터","address":"강원도 양구군 양구읍 비봉로73번길 52-1","lat":"38.1094076","lng":"127.9838193"},
{"no":"245","sido":"충북","name":"코로나19 충청북도 청주시 청원구 예방접종센터","address":"충청북도 청주시 청원구 사천로18번길81","lat":"36.6791575","lng":"127.4782435"},
{"no":"246","sido":"충북","name":"코로나19 충청북도 보은군 예방접종센터","address":"충청북도 보은군 보은읍 동광길 50","lat":"36.4865783","lng":"127.7162134"},
{"no":"247","sido":"충북","name":"코로나19 충청북도 증평군 예방접종센터","address":"충청북도 증평군 증평읍 보건복지로 64-2","lat":"36.7739036","lng":"127.5844606"},
{"no":"248","sido":"충북","name":"코로나19 충청북도 진천군 예방접종센터","address":"충청북도 진천군 진천읍 문화로 69-4","lat":"36.8495605","lng":"127.440129"},
{"no":"249","sido":"충북","name":"코로나19 충청북도 괴산군 예방접종센터","address":"충청북도 괴산군 임꺽정로 99-9","lat":"36.8137919","lng":"127.7860812"},
{"no":"250","sido":"전북","name":"코로나19 전라북도 무주군 예방접종센터","address":"전라북도 무주군 무주읍 한풍루로 326-17","lat":"36.002357","lng":"127.6625197"},
{"no":"251","sido":"경북","name":"코로나19 경상북도 구미시 예방접종센터","address":"경상북도 구미시 산책길 63","lat":"36.1235499","lng":"128.3294341"},
{"no":"252","sido":"경북","name":"코로나19 경상북도 군위군 예방접종센터","address":"경상북도 군위군 군위읍 군청로 158","lat":"36.2374567","lng":"128.574422"},
{"no":"253","sido":"경북","name":"코로나19 경상북도 영양군 예방접종센터","address":"경상북도 영양군 영양읍 군민회관길 46","lat":"36.6599599","lng":"129.116842"},
{"no":"254","sido":"경북","name":"코로나19 경상북도 청도군 예방접종센터","address":"경상북도 청도군 화양읍 청려로 1846","lat":"35.6485232","lng":"128.7190562"},
{"no":"255","sido":"경북","name":"코로나19 경상북도 성주군 예방접종센터","address":"경상북도 성주군 성주읍 성주로 3257","lat":"35.9182709","lng":"128.2901649"},
{"no":"256","sido":"경북","name":"코로나19 경상북도 울진군 예방접종센터","address":"경상북도 울진군 울진읍 연호로 47","lat":"36.9951057","lng":"129.4064377"},
{"no":"257","sido":"경북","name":"코로나19 경상북도 울릉군 예방접종센터","address":"경상북도 울릉군 울릉읍 울릉순환로 396-18","lat":"37.4858999","lng":"130.8989205"}
]

